city,state_id,state,county,lat,lng,population,density
New York,NY,New York,Queens,40.6943,-73.9249,18972871,10768.2
Los Angeles,CA,California,Los Angeles,34.1141,-118.4068,12121244,3267.6
Chicago,IL,Illinois,Cook,41.8375,-87.6866,8595181,4576.6
Miami,FL,Florida,Miami-Dade,25.784,-80.2101,5711945,4945.7
Dallas,TX,Texas,Dallas,32.7935,-96.7667,5668165,1522.2
Houston,TX,Texas,Harris,29.786,-95.3885,5650910,1394.6
Philadelphia,PA,Pennsylvania,Philadelphia,40.0077,-75.1339,5512873,4544.9
Atlanta,GA,Georgia,Fulton,33.7628,-84.422,5046555,1419.9
Washington,DC,District of Columbia,District of Columbia,38.9047,-77.0163,4810669,4434.0
Boston,MA,Massachusetts,Suffolk,42.3188,-71.0852,4208580,5505.8
Phoenix,AZ,Arizona,Maricopa,33.5722,-112.0892,4047095,1235.5
Detroit,MI,Michigan,Wayne,42.3834,-83.1024,3522856,1871.2
Seattle,WA,Washington,King,47.6211,-122.3244,3438221,3412.2
San Francisco,CA,California,San Francisco,37.7558,-122.4449,3290197,7199.4
San Diego,CA,California,San Diego,32.8313,-117.1222,3084174,1675.9
Minneapolis,MN,Minnesota,Hennepin,44.9635,-93.2678,2856952,3035.5
Brooklyn,NY,New York,Kings,40.6501,-73.9496,2736074,15200.5
Tampa,FL,Florida,Hillsborough,27.9945,-82.4447,2683956,1340.7
Denver,CO,Colorado,Denver,39.762,-104.8758,2650725,1805.7
Queens,NY,New York,Queens,40.7498,-73.7976,2405464,8503.7
Baltimore,MD,Maryland,Baltimore,39.3051,-76.6144,2205092,2872.8
Las Vegas,NV,Nevada,Clark,36.2333,-115.2654,2150373,1754.7
St. Louis,MO,Missouri,St. Louis,38.6359,-90.2451,2092481,1905.7
Portland,OR,Oregon,Multnomah,45.5371,-122.65,2036875,1881.6
Riverside,CA,California,Riverside,33.9381,-117.3949,2022285,1557.0
Orlando,FL,Florida,Orange,28.4773,-81.337,1927699,992.0
Sacramento,CA,California,Sacramento,38.5677,-121.4685,1924167,1971.3
San Juan,PR,Puerto Rico,San Juan,18.3985,-66.061,1915105,2982.2
San Antonio,TX,Texas,Bexar,29.4632,-98.5238,1910785,1184.5
San Jose,CA,California,Santa Clara,37.3012,-121.848,1729879,2229.0
Pittsburgh,PA,Pennsylvania,Allegheny,40.4397,-79.9763,1720279,2100.7
Cincinnati,OH,Ohio,Hamilton,39.1413,-84.506,1712287,1500.2
Manhattan,NY,New York,New York,40.7834,-73.9662,1694263,28653.9
Cleveland,OH,Ohio,Cuyahoga,41.4764,-81.6805,1683059,1904.0
Indianapolis,IN,Indiana,Marion,39.7771,-86.1458,1659305,928.2
Austin,TX,Texas,Travis,30.3005,-97.7522,1659251,1165.6
Kansas City,MO,Missouri,Jackson,39.1238,-94.5541,1644497,602.6
Columbus,OH,Ohio,Franklin,39.9862,-82.9855,1556848,1559.5
Charlotte,NC,North Carolina,Mecklenburg,35.2083,-80.8303,1516107,1091.0
Virginia Beach,VA,Virginia,Virginia Beach,36.7335,-76.0435,1500764,711.4
Bronx,NY,New York,Bronx,40.8501,-73.8662,1472654,13356.3
Milwaukee,WI,Wisconsin,Milwaukee,43.0642,-87.9675,1340981,2379.0
Providence,RI,Rhode Island,Providence,41.823,-71.4187,1270149,3764.8
Jacksonville,FL,Florida,Duval,30.3322,-81.6749,1220191,466.3
Salt Lake City,UT,Utah,Salt Lake,40.7776,-111.9311,1135344,700.3
Nashville,TN,Tennessee,Davidson,36.1715,-86.7842,1098486,541.3
Raleigh,NC,North Carolina,Wake,35.8324,-78.6429,1062018,1232.8
Memphis,TN,Tennessee,Shelby,35.1087,-89.9663,1034498,852.1
Louisville,KY,Kentucky,Jefferson,38.1663,-85.6485,1022630,907.6
Richmond,VA,Virginia,Richmond,37.5295,-77.4756,1008069,1477.0
Buffalo,NY,New York,Erie,42.9018,-78.8487,1004655,2446.1
Oklahoma City,OK,Oklahoma,Oklahoma,35.4676,-97.5136,994284,413.7
Bridgeport,CT,Connecticut,Fairfield,41.1918,-73.1954,975078,3485.4
New Orleans,LA,Louisiana,Orleans,30.0687,-89.9288,925443,891.2
Fort Worth,TX,Texas,Tarrant,32.7817,-97.3474,908469,988.3
Hartford,CT,Connecticut,Hartford,41.7661,-72.6834,907046,2722.5
Tucson,AZ,Arizona,Pima,32.1541,-110.8787,875284,873.6
Honolulu,HI,Hawaii,Honolulu,21.3294,-157.846,835291,2214.1
McAllen,TX,Texas,Hidalgo,26.2252,-98.2467,809002,883.4
Omaha,NE,Nebraska,Douglas,41.2627,-96.0529,806485,1299.2
El Paso,TX,Texas,El Paso,31.8476,-106.43,794344,1015.8
Albuquerque,NM,New Mexico,Bernalillo,35.1054,-106.6465,765693,1155.5
Rochester,NY,New York,Monroe,43.168,-77.6162,737309,2227.6
Sarasota,FL,Florida,Sarasota,27.3387,-82.5432,727388,1518.1
Fresno,CA,California,Fresno,36.783,-119.7939,719558,1757.3
Tulsa,OK,Oklahoma,Tulsa,36.1283,-95.9042,715983,785.8
Allentown,PA,Pennsylvania,Lehigh,40.5961,-75.4756,714136,2663.3
Dayton,OH,Ohio,Montgomery,39.7805,-84.2003,709300,971.7
Birmingham,AL,Alabama,Jefferson,33.5279,-86.7971,704676,553.9
Charleston,SC,South Carolina,Charleston,32.8168,-79.9687,685517,460.9
Cape Coral,FL,Florida,Lee,26.6443,-81.9957,682773,690.5
Columbia,SC,South Carolina,Richland,34.0378,-80.9036,640502,377.3
Concord,CA,California,Contra Costa,37.9722,-122.0016,640270,1633.1
Colorado Springs,CO,Colorado,El Paso,38.8674,-104.7605,628808,930.0
Springfield,MA,Massachusetts,Hampden,42.1155,-72.5395,620494,1861.8
Knoxville,TN,Tennessee,Knox,35.9692,-83.9496,619925,733.3
Baton Rouge,LA,Louisiana,East Baton Rouge,30.442,-91.1311,610751,993.9
Ogden,UT,Utah,Weber,41.2279,-111.9682,608259,1221.9
Grand Rapids,MI,Michigan,Kent,42.9619,-85.6562,604311,1719.6
Albany,NY,New York,Albany,42.6664,-73.7987,604077,1747.3
Bakersfield,CA,California,Kern,35.3529,-119.0359,590845,979.0
Mission Viejo,CA,California,Orange,33.6096,-117.6551,588540,2091.0
New Haven,CT,Connecticut,New Haven,41.3113,-72.9246,587648,2693.4
Worcester,MA,Massachusetts,Worcester,42.2705,-71.8079,573573,1913.8
Provo,UT,Utah,Utah,40.2457,-111.6457,551645,1082.6
Akron,OH,Ohio,Summit,41.0798,-81.5219,546549,1230.5
Palm Bay,FL,Florida,Brevard,27.9631,-80.6593,528322,508.2
Des Moines,IA,Iowa,Polk,41.5725,-93.6105,514654,943.2
Murrieta,CA,California,Riverside,33.5719,-117.1909,509526,1310.3
Mesa,AZ,Arizona,Maricopa,33.4015,-111.7178,497752,1415.7
Staten Island,NY,New York,Richmond,40.5834,-74.1496,495747,3286.2
Wichita,KS,Kansas,Sedgwick,37.6895,-97.3443,491916,930.9
Toledo,OH,Ohio,Lucas,41.6638,-83.5827,490832,1319.7
Harrisburg,PA,Pennsylvania,Dauphin,40.2752,-76.8843,472261,2342.0
Port St. Lucie,FL,Florida,St. Lucie,27.2796,-80.3884,468979,634.0
Long Beach,CA,California,Los Angeles,33.7977,-118.167,466565,3517.9
Reno,NV,Nevada,Washoe,39.5497,-119.8483,463328,889.9
Madison,WI,Wisconsin,Dane,43.0822,-89.393,461778,1253.6
Little Rock,AR,Arkansas,Pulaski,34.7256,-92.3577,457379,637.0
Greenville,SC,South Carolina,Greenville,34.8354,-82.3646,450487,903.6
Denton,TX,Texas,Denton,33.2175,-97.1418,445814,557.5
Spokane,WA,Washington,Spokane,47.6671,-117.433,440270,1230.8
Oakland,CA,California,Alameda,37.7904,-122.2166,437548,2917.1
Lancaster,PA,Pennsylvania,Lancaster,40.042,-76.3012,430621,3169.1
Poughkeepsie,NY,New York,Dutchess,41.695,-73.9211,423386,2277.1
Boise,ID,Idaho,Ada,43.6005,-116.2308,422665,1047.5
Winston-Salem,NC,North Carolina,Forsyth,36.1029,-80.261,420400,712.9
Syracuse,NY,New York,Onondaga,43.0407,-76.1437,418875,2196.4
Augusta,GA,Georgia,Richmond,33.3645,-82.0708,409668,252.3
Stockton,CA,California,San Joaquin,37.9765,-121.3109,406822,1925.2
Palm Coast,FL,Florida,Flagler,29.5389,-81.2457,403834,357.2
Chattanooga,TN,Tennessee,Hamilton,35.066,-85.2481,403233,491.9
Kissimmee,FL,Florida,Osceola,28.3041,-81.4169,399929,1300.3
Durham,NC,North Carolina,Durham,35.9792,-78.9022,399762,939.7
Arlington,TX,Texas,Tarrant,32.6998,-97.125,392304,1600.4
Victorville,CA,California,San Bernardino,34.5277,-117.3536,389060,644.1
Aurora,CO,Colorado,Arapahoe,39.7083,-104.7237,383496,915.8
Modesto,CA,California,Stanislaus,37.6375,-121.0028,382994,1923.9
Lancaster,CA,California,Los Angeles,34.6935,-118.1753,381732,645.9
Fayetteville,AR,Arkansas,Washington,36.0714,-94.1661,381636,614.5
Scranton,PA,Pennsylvania,Lackawanna,41.4044,-75.6649,376974,1174.7
Oxnard,CA,California,Ventura,34.1964,-119.1815,366330,3023.3
Youngstown,OH,Ohio,Mahoning,41.0993,-80.6463,363541,730.1
Indio,CA,California,Riverside,33.7346,-116.2346,361831,1046.2
Pensacola,FL,Florida,Escambia,30.4413,-87.1911,360711,897.6
Anaheim,CA,California,Orange,33.839,-117.8574,348204,2711.7
Bonita Springs,FL,Florida,Lee,26.3558,-81.7859,347581,580.4
Greensboro,NC,North Carolina,Guilford,36.0956,-79.8271,345270,872.6
Huntsville,AL,Alabama,Madison,34.6981,-86.6412,339136,351.8
Corpus Christi,TX,Texas,Nueces,27.7254,-97.3767,333764,777.0
Fort Wayne,IN,Indiana,Allen,41.0888,-85.1436,330305,935.5
Fayetteville,NC,North Carolina,Cumberland,35.085,-78.9772,328827,550.0
Ann Arbor,MI,Michigan,Washtenaw,42.2759,-83.731,327814,1658.0
Jackson,MS,Mississippi,Hinds,32.3157,-90.2125,326977,566.0
Antioch,CA,California,Contra Costa,37.9787,-121.796,322796,1475.4
Mobile,AL,Alabama,Mobile,30.6782,-88.1162,322079,525.9
Lexington,KY,Kentucky,Fayette,38.0423,-84.4587,321354,438.6
Asheville,NC,North Carolina,Buncombe,35.5707,-82.5537,316694,784.0
Trenton,NJ,New Jersey,Mercer,40.2237,-74.7641,316436,4232.8
Santa Rosa,CA,California,Sonoma,38.4458,-122.7067,314196,1619.6
Santa Ana,CA,California,Orange,33.7367,-117.8819,313818,4690.9
Lansing,MI,Michigan,Ingham,42.7142,-84.5601,312829,1158.9
Henderson,NV,Nevada,Clark,36.0133,-115.0381,311250,1124.7
St. Paul,MN,Minnesota,Ramsey,44.9478,-93.1039,309751,2272.3
Lakeland,FL,Florida,Polk,28.0557,-81.9545,308994,642.7
Newark,NJ,New Jersey,Essex,40.7245,-74.1725,306247,4508.4
Fort Collins,CO,Colorado,Larimer,40.5477,-105.0656,301596,1120.5
Reading,PA,Pennsylvania,Berks,40.34,-75.9267,299068,3465.0
Springfield,MO,Missouri,Greene,37.1943,-93.2916,298722,784.1
Irvine,CA,California,Orange,33.6772,-117.7738,297868,1604.7
Anchorage,AK,Alaska,Anchorage,61.1508,-149.1091,292545,66.1
The Woodlands,TX,Texas,Montgomery,30.1738,-95.5134,292380,1021.9
South Bend,IN,Indiana,St. Joseph,41.6767,-86.2696,290915,944.5
Rockford,IL,Illinois,Winnebago,42.2596,-89.064,289763,877.0
Savannah,GA,Georgia,Chatham,32.0286,-81.1821,289607,517.7
Lincoln,NE,Nebraska,Lancaster,40.8099,-96.6784,289136,1131.9
Jersey City,NJ,New Jersey,Hudson,40.7184,-74.0686,287146,6878.3
Round Lake Beach,IL,Illinois,Lake,42.3791,-88.0811,287012,2090.5
Flint,MI,Michigan,Genesee,43.0236,-83.6921,286324,1108.4
Shreveport,LA,Louisiana,Caddo,32.4653,-93.7955,286200,678.0
Plano,TX,Texas,Collin,33.0502,-96.7486,282181,1555.8
Myrtle Beach,SC,South Carolina,Horry,33.7094,-78.8844,281180,551.9
Davenport,IA,Iowa,Scott,41.5565,-90.6053,280282,618.5
Canton,OH,Ohio,Stark,40.8078,-81.3676,277741,1038.8
Santa Clarita,CA,California,Los Angeles,34.4175,-118.4964,275230,1159.7
Chula Vista,CA,California,San Diego,32.6281,-117.0144,274818,2090.7
Eugene,OR,Oregon,Lane,44.0564,-123.1174,273904,1489.3
Chandler,AZ,Arizona,Maricopa,33.2825,-111.8514,272439,1515.9
Salem,OR,Oregon,Marion,44.9233,-123.0244,268634,1358.7
Concord,NC,North Carolina,Cabarrus,35.3933,-80.6369,264492,571.0
Gilbert,AZ,Arizona,Maricopa,33.31,-111.7463,262249,1398.0
Columbus,GA,Georgia,Muscogee,32.51,-84.8771,262061,348.5
Aguadilla,PR,Puerto Rico,Aguadilla,18.4382,-67.1537,260331,1681.1
Lubbock,TX,Texas,Lubbock,33.5657,-101.8879,259946,736.6
North Las Vegas,NV,Nevada,Clark,36.2883,-115.0888,259638,933.1
St. Petersburg,FL,Florida,Pinellas,27.7931,-82.6652,258245,1647.5
Tallahassee,FL,Florida,Leon,30.4551,-84.2527,257648,731.2
Laredo,TX,Texas,Webb,27.5625,-99.4874,256748,941.8
Peoria,IL,Illinois,Peoria,40.752,-89.6154,255718,906.6
Avondale,AZ,Arizona,Maricopa,33.3873,-112.3235,254537,698.1
Lafayette,LA,Louisiana,Lafayette,30.2082,-92.0325,254286,874.7
Irving,TX,Texas,Dallas,32.8583,-96.9702,254184,1386.2
Montgomery,AL,Alabama,Montgomery,32.3482,-86.2668,253711,480.8
Visalia,CA,California,Tulare,36.3276,-119.3269,249804,1352.8
McKinney,TX,Texas,Collin,33.2016,-96.667,248840,1102.4
Wilmington,NC,North Carolina,New Hanover,34.2099,-77.8866,247372,917.6
Chesapeake,VA,Virginia,Chesapeake,36.6778,-76.3023,247172,276.8
Glendale,AZ,Arizona,Maricopa,33.5791,-112.2311,245685,1494.0
Garland,TX,Texas,Dallas,32.91,-96.6304,245075,1613.1
Kennewick,WA,Washington,Benton,46.1978,-119.1732,241230,1144.9
Winter Haven,FL,Florida,Polk,28.0118,-81.7014,240768,504.8
Scottsdale,AZ,Arizona,Maricopa,33.6872,-111.8651,238685,535.1
Norfolk,VA,Virginia,Norfolk,36.8945,-76.259,238556,1770.5
Killeen,TX,Texas,Bell,31.0753,-97.7297,238288,1046.1
York,PA,Pennsylvania,York,39.9651,-76.7315,236818,3211.3
Atlantic City,NJ,New Jersey,Atlantic,39.3797,-74.4527,236314,1356.1
Nashua,NH,New Hampshire,Hillsborough,42.7491,-71.491,235982,1115.1
Arlington,VA,Virginia,Arlington,38.8786,-77.1011,235764,3511.4
Brownsville,TX,Texas,Cameron,25.9975,-97.458,235735,534.4
Fremont,CA,California,Alameda,37.5265,-121.9843,231502,1160.9
Gulfport,MS,Mississippi,Harrison,30.4274,-89.0704,231423,497.4
Evansville,IN,Indiana,Vanderburgh,37.9881,-87.5341,226788,965.5
Hialeah,FL,Florida,Miami-Dade,25.8696,-80.3045,224362,4184.1
Navarre,FL,Florida,Santa Rosa,30.4174,-86.8907,223951,625.9
Bel Air South,MD,Maryland,Harford,39.5022,-76.3113,222834,998.6
North Port,FL,Florida,Sarasota,27.0576,-82.1977,221616,267.2
San Bernardino,CA,California,San Bernardino,34.1416,-117.2943,220821,1347.0
Portland,ME,Maine,Cumberland,43.6773,-70.2715,220807,1195.5
Enterprise,NV,Nevada,Clark,36.0091,-115.2278,219566,1255.4
Bremerton,WA,Washington,Kitsap,47.5436,-122.7121,219538,560.3
Green Bay,WI,Wisconsin,Brown,44.5148,-87.9895,219472,887.2
Appleton,WI,Wisconsin,Outagamie,44.278,-88.3892,218448,1150.9
Spring Valley,NV,Nevada,Clark,36.0952,-115.2636,217441,2378.2
Tacoma,WA,Washington,Pierce,47.2431,-122.4531,217332,1675.7
Spartanburg,SC,South Carolina,Spartanburg,34.9442,-81.9251,216021,713.9
Roanoke,VA,Virginia,Roanoke,37.2785,-79.9581,215781,900.1
Gainesville,FL,Florida,Alachua,29.6804,-82.3459,213287,814.2
Deltona,FL,Florida,Volusia,28.905,-81.2137,212616,950.1
Kalamazoo,MI,Michigan,Kalamazoo,42.2749,-85.5882,212033,1190.0
Thousand Oaks,CA,California,Ventura,34.1914,-118.8756,211045,891.9
Hickory,NC,North Carolina,Catawba,35.741,-81.3223,211042,515.4
Yonkers,NY,New York,Westchester,40.9466,-73.8673,209730,4292.6
Moreno Valley,CA,California,Riverside,33.9244,-117.2045,208371,1570.3
Fontana,CA,California,San Bernardino,34.0968,-117.4599,208087,1906.8
College Station,TX,Texas,Brazos,30.5852,-96.2959,207514,874.0
Fargo,ND,North Dakota,Cass,46.8651,-96.8292,207310,949.4
Amarillo,TX,Texas,Potter,35.1984,-101.8316,204357,748.0
Norwich,CT,Connecticut,New London,41.5495,-72.0882,201726,538.1
Olympia,WA,Washington,Thurston,47.0417,-122.8959,200836,1108.0
Waterbury,CT,Connecticut,New Haven,41.5582,-73.0361,199552,1460.0
Salinas,CA,California,Monterey,36.6883,-121.6317,199290,2564.3
Huntington,WV,West Virginia,Cabell,38.4109,-82.4345,199133,1098.3
Huntington Beach,CA,California,Orange,33.696,-118.0018,198735,2857.1
Clarksville,TN,Tennessee,Montgomery,36.5692,-87.3413,198689,605.6
Santa Barbara,CA,California,Santa Barbara,34.4285,-119.7202,198240,1799.4
Glendale,CA,California,Los Angeles,34.1819,-118.2468,196512,2525.4
Sunrise Manor,NV,Nevada,Clark,36.1783,-115.0487,196411,2269.8
Grand Prairie,TX,Texas,Dallas,32.6871,-97.0208,195992,1032.1
Overland Park,KS,Kansas,Johnson,38.887,-94.687,195249,993.3
Hagerstown,MD,Maryland,Washington,39.6401,-77.7217,194602,1229.4
Nampa,ID,Idaho,Canyon,43.5844,-116.5638,194547,1090.5
Gastonia,NC,North Carolina,Gaston,35.2494,-81.1854,194190,572.0
Frisco,TX,Texas,Collin,33.156,-96.8216,193140,1059.7
Cedar Rapids,IA,Iowa,Linn,41.9662,-91.6783,192714,712.9
Hemet,CA,California,Riverside,33.7341,-116.9969,191170,1116.6
Paradise,NV,Nevada,Clark,36.0872,-115.1355,189852,1758.7
Sioux Falls,SD,South Dakota,Minnehaha,43.5396,-96.7311,189258,879.9
Vancouver,WA,Washington,Clark,45.6366,-122.5967,188331,1447.8
Peoria,AZ,Arizona,Maricopa,33.7843,-112.2989,187733,377.4
Waco,TX,Texas,McLennan,31.5599,-97.1882,187172,599.5
Lorain,OH,Ohio,Lorain,41.4409,-82.184,186500,1044.0
Erie,PA,Pennsylvania,Erie,42.1167,-80.0733,186489,1948.6
Newport News,VA,Virginia,Newport News,37.1051,-76.5185,185069,1005.1
Aurora,IL,Illinois,Kane,41.7638,-88.2902,183447,1711.4
Fort Lauderdale,FL,Florida,Broward,26.1412,-80.1464,182247,2029.7
Vallejo,CA,California,Solano,38.1125,-122.2342,181882,1539.3
Murfreesboro,TN,Tennessee,Rutherford,35.849,-86.4121,181450,863.0
Spring Hill,FL,Florida,Hernando,28.4798,-82.53,179668,732.9
Tempe,AZ,Arizona,Maricopa,33.3881,-111.9319,178862,1852.3
High Point,NC,North Carolina,Guilford,35.991,-79.9937,178800,768.9
Medford,OR,Oregon,Jackson,42.3372,-122.854,178457,1224.5
Danbury,CT,Connecticut,Fairfield,41.4015,-73.4709,177722,777.6
Elk Grove,CA,California,Sacramento,38.4161,-121.3842,175510,1594.1
Ontario,CA,California,San Bernardino,34.0393,-117.6064,175223,1376.8
Frederick,MD,Maryland,Frederick,39.4337,-77.4141,175032,1158.3
Vero Beach South,FL,Florida,Indian River,27.6132,-80.4163,174748,939.5
Ocala,FL,Florida,Marion,29.178,-82.1511,174618,490.4
Oceanside,CA,California,San Diego,33.2247,-117.3083,174461,1643.7
Rancho Cucamonga,CA,California,San Bernardino,34.1247,-117.5667,173946,1478.4
Garden Grove,CA,California,Orange,33.7787,-117.9601,172708,3714.5
Cary,NC,North Carolina,Wake,35.7819,-78.8195,171603,1101.0
Pembroke Pines,FL,Florida,Broward,26.0128,-80.3382,170346,2031.8
Bayamón,PR,Puerto Rico,Bayamón,18.3794,-66.1635,170028,2245.3
Palmdale,CA,California,Los Angeles,34.5944,-118.1057,167987,557.8
Manchester,NH,New Hampshire,Hillsborough,42.9848,-71.4447,167568,1312.6
Lafayette,IN,Indiana,Tippecanoe,40.3991,-86.8593,166793,953.6
Santa Cruz,CA,California,Santa Cruz,36.9789,-122.0346,165933,1970.2
Marysville,WA,Washington,Snohomish,48.0809,-122.1561,164655,1295.4
Muskegon,MI,Michigan,Muskegon,43.2281,-86.2562,164136,1018.7
Springfield,IL,Illinois,Sangamon,39.7709,-89.654,162588,726.0
Hayward,CA,California,Alameda,37.6328,-122.0766,162254,1338.3
New Bedford,MA,Massachusetts,Bristol,41.6697,-70.9428,158353,1840.8
Alexandria,VA,Virginia,Alexandria,38.8185,-77.0861,158185,4092.5
Paterson,NJ,New Jersey,Passaic,40.9147,-74.1624,157927,6676.6
Corona,CA,California,Riverside,33.8616,-117.5649,157844,1625.1
Merced,CA,California,Merced,37.3057,-120.4779,157617,1396.0
Warner Robins,GA,Georgia,Houston,32.5961,-83.6527,157416,786.6
Port Arthur,TX,Texas,Jefferson,29.8554,-93.9264,156988,278.2
Macon,GA,Georgia,Bibb,32.8065,-83.6974,156711,236.9
Kansas City,KS,Kansas,Wyandotte,39.1235,-94.7443,155745,473.6
Lakewood,CO,Colorado,Jefferson,39.6977,-105.1172,155608,1383.1
Sunnyvale,CA,California,Santa Clara,37.3836,-122.0255,155550,2670.3
Fredericksburg,VA,Virginia,Fredericksburg,38.2992,-77.4872,155414,1073.6
Leesburg,FL,Florida,Lake,28.7672,-81.8962,154301,232.4
Champaign,IL,Illinois,Champaign,40.1142,-88.2737,153278,1482.7
Hollywood,FL,Florida,Broward,26.0293,-80.1679,152597,2179.6
Pasadena,TX,Texas,Harris,29.6575,-95.1498,151964,1348.4
Pomona,CA,California,Los Angeles,34.0585,-117.7626,151592,2538.6
Escondido,CA,California,San Diego,33.1348,-117.0723,151443,1554.9
Joliet,IL,Illinois,Will,41.5188,-88.1499,150323,874.0
Lake Charles,LA,Louisiana,Calcasieu,30.201,-93.2111,150036,657.2
Mesquite,TX,Texas,Dallas,32.7602,-96.5865,149848,1120.3
Mauldin,SC,South Carolina,Greenville,34.7821,-82.3032,149687,826.4
Panama City,FL,Florida,Bay,30.1995,-85.6003,149366,395.2
Bellevue,WA,Washington,King,47.5951,-122.1535,149365,1686.3
Naperville,IL,Illinois,DuPage,41.748,-88.1659,149013,1459.0
Harlingen,TX,Texas,Cameron,26.1916,-97.6977,148545,625.7
Tuscaloosa,AL,Alabama,Tuscaloosa,33.2348,-87.5268,148523,627.3
Elkhart,IN,Indiana,Elkhart,41.6916,-85.9627,147679,739.1
Torrance,CA,California,Los Angeles,33.8346,-118.3416,147156,2717.9
Binghamton,NY,New York,Broome,42.1014,-75.9093,146870,1651.3
Houma,LA,Louisiana,Terrebonne,29.58,-90.7059,146665,882.1
Topeka,KS,Kansas,Shawnee,39.0346,-95.6955,146473,788.4
Roseville,CA,California,Placer,38.7703,-121.3196,145687,1216.3
Fairfield,CA,California,Solano,38.2583,-122.0335,145163,1081.9
Tyler,TX,Texas,Smith,32.3184,-95.3062,143895,711.4
Fullerton,CA,California,Orange,33.8841,-117.9279,142964,2429.3
Pueblo,CO,Colorado,Pueblo,38.2701,-104.6114,142727,768.2
Athens,GA,Georgia,Clarke,33.9508,-83.3689,142277,414.8
Santa Maria,CA,California,Santa Barbara,34.9333,-120.4431,142230,1786.2
Surprise,AZ,Arizona,Maricopa,33.6815,-112.4515,141875,486.6
Charleston,WV,West Virginia,Kanawha,38.3484,-81.6322,141640,579.4
Las Cruces,NM,New Mexico,Doña Ana,32.3265,-106.7893,141399,516.7
Metairie,LA,Louisiana,Jefferson,29.9977,-90.178,140590,2299.3
Thornton,CO,Colorado,Adams,39.9197,-104.9438,140538,1550.7
Olathe,KS,Kansas,Johnson,38.8833,-94.82,140339,866.8
Carolina,PR,Puerto Rico,Carolina,18.4054,-65.9792,139735,2502.3
Gainesville,GA,Georgia,Hall,34.2902,-83.8294,139507,479.0
West Valley City,UT,Utah,Salt Lake,40.6886,-112.0123,139361,1461.5
Orange,CA,California,Orange,33.8038,-117.8218,139195,2095.7
Warren,MI,Michigan,Macomb,42.4934,-83.027,138996,1507.1
Pasadena,CA,California,Los Angeles,34.1597,-118.139,138771,2388.0
Beaumont,TX,Texas,Jefferson,30.0849,-94.1451,137549,549.3
Burlington,NC,North Carolina,Alamance,36.076,-79.4685,137096,696.3
Hampton,VA,Virginia,Hampton,37.0551,-76.363,136748,1014.2
Columbia,MO,Missouri,Boone,38.9472,-92.3268,136736,711.5
Yuma,AZ,Arizona,Yuma,32.5995,-114.5491,135933,311.5
Elizabeth,NJ,New Jersey,Union,40.6658,-74.1913,135772,4027.0
Racine,WI,Wisconsin,Racine,42.7274,-87.8135,135352,1918.5
Greeley,CO,Colorado,Weld,40.4152,-104.7706,135270,847.8
Kent,WA,Washington,King,47.3887,-122.2128,134890,1484.0
Stamford,CT,Connecticut,Fairfield,41.1039,-73.5585,134820,1334.9
Odessa,TX,Texas,Ector,31.8801,-102.3448,134793,920.0
Bloomington,IL,Illinois,McLean,40.4757,-88.9703,134357,1106.6
Miramar,FL,Florida,Broward,25.9773,-80.3351,134306,1879.8
Grand Junction,CO,Colorado,Mesa,39.0877,-108.5673,134074,594.6
Sterling Heights,MI,Michigan,Macomb,42.5809,-83.0305,134062,1401.5
Coral Springs,FL,Florida,Broward,26.2702,-80.2591,133693,2252.2
Johnson City,TN,Tennessee,Washington,36.3406,-82.3806,131902,594.9
Carrollton,TX,Texas,Dallas,32.989,-96.8999,131388,1446.4
Midland,TX,Texas,Midland,32.0243,-102.1147,130765,722.2
Yakima,WA,Washington,Yakima,46.5923,-120.5496,130440,1302.9
Bellingham,WA,Washington,Whatcom,48.7548,-122.469,129601,1246.1
Yuba City,CA,California,Sutter,39.1357,-121.6383,129536,1718.2
South Lyon,MI,Michigan,Oakland,42.4614,-83.6526,128071,1219.6
Santa Clara,CA,California,Santa Clara,37.3646,-121.968,127922,2677.1
St. George,UT,Utah,Washington,37.0758,-113.5752,127890,429.0
Fort Smith,AR,Arkansas,Sebastian,35.3495,-94.3695,127699,529.7
Simi Valley,CA,California,Ventura,34.2663,-118.749,127158,1168.8
Dover,DE,Delaware,Kent,39.161,-75.5202,125931,617.8
Norman,OK,Oklahoma,Cleveland,35.2335,-97.3471,125745,268.2
Abilene,TX,Texas,Taylor,32.4543,-99.7384,125474,451.3
Billings,MT,Montana,Yellowstone,45.7891,-108.5526,124973,945.0
Ponce,PR,Puerto Rico,Ponce,18.0127,-66.6212,124719,1497.1
Lehigh Acres,FL,Florida,Lee,26.612,-81.6388,123751,518.7
St. Cloud,MN,Minnesota,Stearns,45.534,-94.1718,123569,660.1
Arecibo,PR,Puerto Rico,Arecibo,18.4491,-66.7387,123499,970.8
Kenosha,WI,Wisconsin,Kenosha,42.5865,-87.8773,123061,1359.8
Greenville,NC,North Carolina,Pitt,35.5943,-77.376,122921,967.3
Arvada,CO,Colorado,Jefferson,39.832,-105.151,122903,1193.0
Pearland,TX,Texas,Brazoria,29.5581,-95.3218,122609,998.0
Independence,MO,Missouri,Jackson,39.0871,-94.3501,122230,580.1
Texas City,TX,Texas,Galveston,29.4154,-94.9682,122017,288.2
Redding,CA,California,Shasta,40.5698,-122.365,121498,595.7
Lynchburg,VA,Virginia,Lynchburg,37.4003,-79.1909,120877,638.3
Boulder,CO,Colorado,Boulder,40.0248,-105.2524,120818,1594.5
Iowa City,IA,Iowa,Johnson,41.6559,-91.5303,120015,1141.8
Rochester,MN,Minnesota,Olmsted,44.0154,-92.478,119732,813.7
Berkeley,CA,California,Alameda,37.8722,-122.276,119607,4554.9
Waldorf,MD,Maryland,Charles,38.6085,-76.9194,119442,827.9
The Villages,FL,Florida,Sumter,28.9034,-81.9887,119296,963.1
Duluth,MN,Minnesota,St. Louis,46.7756,-92.1393,118975,462.6
East Los Angeles,CA,California,Los Angeles,34.0326,-118.1691,118964,6242.6
Saginaw,MI,Michigan,Saginaw,43.4199,-83.9501,118845,1093.9
Clovis,CA,California,Fresno,36.8278,-119.683,118488,1686.7
Leominster,MA,Massachusetts,Worcester,42.5209,-71.7717,118190,557.0
Round Rock,TX,Texas,Williamson,30.527,-97.6642,117735,1321.3
Monroe,LA,Louisiana,Ouachita,32.5185,-92.0774,117197,623.7
Cambridge,MA,Massachusetts,Middlesex,42.3759,-71.1185,116892,7111.9
Clearwater,FL,Florida,Pinellas,27.979,-82.7623,116616,1713.6
Seaside,CA,California,Monterey,36.6224,-121.8199,116189,1473.9
West Jordan,UT,Utah,Salt Lake,40.6024,-112.0008,116045,1375.6
Richardson,TX,Texas,Dallas,32.9716,-96.7093,115904,1602.8
West Palm Beach,FL,Florida,Palm Beach,26.7469,-80.132,115877,796.4
Temple,TX,Texas,Bell,31.1068,-97.3891,115809,413.6
Burlington,VT,Vermont,Chittenden,44.4876,-73.2316,115682,1598.1
Richmond,CA,California,Contra Costa,37.9477,-122.3389,115677,1413.8
Westminster,CO,Colorado,Adams,39.8837,-105.0624,115535,1403.7
Pottstown,PA,Pennsylvania,Montgomery,40.2508,-75.6445,115413,1801.2
Brandon,FL,Florida,Hillsborough,27.9367,-82.3,115330,1350.7
Rock Hill,SC,South Carolina,York,34.9415,-81.0241,115292,721.9
Meridian,ID,Idaho,Ada,43.6116,-116.3977,115227,1168.8
Coeur d'Alene,ID,Idaho,Kootenai,47.704,-116.7936,114880,1234.6
Carlsbad,CA,California,San Diego,33.1246,-117.2834,114858,1169.5
Lowell,MA,Massachusetts,Middlesex,42.6389,-71.3217,114804,3157.7
Waterloo,IA,Iowa,Black Hawk,42.4918,-92.3522,114594,424.2
North Charleston,SC,South Carolina,Charleston,32.9067,-80.0722,114542,566.3
Gilroy,CA,California,Santa Clara,37.0046,-121.5854,114461,1289.5
Downey,CA,California,Los Angeles,33.9379,-118.1311,114293,3462.0
Gresham,OR,Oregon,Multnomah,45.5021,-122.4413,114164,1816.5
Elgin,IL,Illinois,Kane,42.0383,-88.324,114156,1137.8
Utica,NY,New York,Oneida,43.0962,-75.2261,112948,1385.0
Broken Arrow,OK,Oklahoma,Tulsa,36.038,-95.7806,112751,667.7
Costa Mesa,CA,California,Orange,33.6667,-117.9135,112148,2759.3
Chico,CA,California,Butte,39.7578,-121.8161,112132,1106.0
Sioux City,IA,Iowa,Woodbury,42.4959,-96.3901,111924,545.1
League City,TX,Texas,Galveston,29.4874,-95.1087,111847,793.9
Miami Gardens,FL,Florida,Miami-Dade,25.9433,-80.2426,111706,2346.3
Pompano Beach,FL,Florida,Broward,26.2428,-80.1312,111423,1787.3
San Buenaventura,CA,California,Ventura,34.2741,-119.2314,110572,1913.6
Everett,WA,Washington,Snohomish,47.9525,-122.1669,110438,1289.4
El Centro,CA,California,Imperial,32.7865,-115.5595,110434,1415.5
Sugar Land,TX,Texas,Fort Bend,29.5935,-95.6358,110272,1131.2
El Monte,CA,California,Los Angeles,34.0739,-118.0291,110144,4602.2
Lewisville,TX,Texas,Denton,33.0454,-96.9815,110077,1124.0
West Covina,CA,California,Los Angeles,34.0555,-117.9113,109396,2547.4
Temecula,CA,California,Riverside,33.4928,-117.1315,109376,1171.9
Bend,OR,Oregon,Deschutes,44.0563,-121.3095,109224,1114.3
Salisbury,MD,Maryland,Wicomico,38.3756,-75.5865,108982,920.1
Jacksonville,NC,North Carolina,Onslow,34.7289,-77.3941,108549,587.7
Inglewood,CA,California,Los Angeles,33.9566,-118.3444,108206,4654.5
Dearborn,MI,Michigan,Wayne,42.3127,-83.213,107985,1502.1
Centennial,CO,Colorado,Arapahoe,39.5926,-104.8673,107972,1446.3
Burbank,CA,California,Los Angeles,34.1879,-118.3235,107364,2305.8
Sparks,NV,Nevada,Washoe,39.5736,-119.7161,106900,1088.7
Sandy Springs,GA,Georgia,Fulton,33.9366,-84.3703,106605,1109.2
Bloomington,IN,Indiana,Monroe,39.1637,-86.5257,106327,1406.4
Logan,UT,Utah,Cache,41.7399,-111.8422,106319,1106.4
Kailua,HI,Hawaii,Honolulu,21.392,-157.7396,106260,1882.8
El Cajon,CA,California,San Diego,32.8017,-116.9604,106043,2747.5
Hillsboro,OR,Oregon,Washington,45.5273,-122.936,105909,1619.6
South Fulton,GA,Georgia,Fulton,33.6273,-84.58,105551,446.7
Renton,WA,Washington,King,47.4784,-122.1918,105313,1673.0
Mandeville,LA,Louisiana,St. Tammany,30.3751,-90.0904,105097,681.3
San Mateo,CA,California,San Mateo,37.5522,-122.3121,105087,3297.1
Columbia,MD,Maryland,Howard,39.2004,-76.859,105086,1274.5
Daly City,CA,California,San Mateo,37.6862,-122.4685,104914,5418.5
Davie,FL,Florida,Broward,26.0789,-80.287,104782,1168.4
Jurupa Valley,CA,California,Riverside,34.001,-117.4706,104684,958.9
Brockton,MA,Massachusetts,Plymouth,42.0821,-71.0242,104216,1732.8
Longmont,CO,Colorado,Boulder,40.1686,-105.1005,104035,1284.8
Rialto,CA,California,San Bernardino,34.1175,-117.3892,103799,1659.6
San Germán,PR,Puerto Rico,San Germán,18.0827,-67.046,103747,1270.7
Eau Claire,WI,Wisconsin,Eau Claire,44.8197,-91.4948,103586,807.5
Turlock,CA,California,Stanislaus,37.5053,-120.8588,103359,1671.5
Norwalk,CA,California,Los Angeles,33.9069,-118.0829,103330,4157.4
Highlands Ranch,CO,Colorado,Douglas,39.5419,-104.9708,103238,1702.6
Allen,TX,Texas,Collin,33.1088,-96.6735,102778,1521.5
Wichita Falls,TX,Texas,Wichita,33.9072,-98.5291,102563,561.1
Rio Rancho,NM,New Mexico,Sandoval,35.2873,-106.6982,102403,366.0
Vacaville,CA,California,Solano,38.3587,-121.9673,102256,1292.1
Spokane Valley,WA,Washington,Spokane,47.6626,-117.2346,102178,1016.2
Charlottesville,VA,Virginia,Charlottesville,38.0375,-78.4855,102164,1779.4
Idaho Falls,ID,Idaho,Bonneville,43.4871,-112.0362,101326,940.0
Menifee,CA,California,Riverside,33.6909,-117.1849,101089,772.4
Lee's Summit,MO,Missouri,Jackson,38.9171,-94.3816,100772,598.2
Quincy,MA,Massachusetts,Norfolk,42.2506,-71.0187,100544,2199.0
San Angelo,TX,Texas,Tom Green,31.4424,-100.4504,100330,647.0
Lynn,MA,Massachusetts,Essex,42.4781,-70.9664,100233,3386.9
Holland,MI,Michigan,Ottawa,42.7677,-86.0984,100202,771.3
Federal Way,WA,Washington,King,47.3091,-122.3358,99792,1676.5
Manteca,CA,California,San Joaquin,37.7927,-121.2264,99764,1463.6
Lafayette,CO,Colorado,Boulder,39.9946,-105.0998,99475,1170.2
Santa Fe,NM,New Mexico,Santa Fe,35.6619,-105.9819,99439,624.0
Hesperia,CA,California,San Bernardino,34.3975,-117.3147,99287,505.5
La Crosse,WI,Wisconsin,La Crosse,43.8241,-91.2268,99227,917.0
Riverview,FL,Florida,Hillsborough,27.8227,-82.3023,98928,801.4
Kingsport,TN,Tennessee,Sullivan,36.5224,-82.5454,98767,394.1
Edinburg,TX,Texas,Hidalgo,26.3196,-98.1597,98759,843.8
Vista,CA,California,San Diego,33.1896,-117.2386,98651,2073.0
Bowling Green,KY,Kentucky,Warren,36.9716,-86.4378,98537,684.7
Carmel,IN,Indiana,Hamilton,39.965,-86.146,98137,779.7
Longview,TX,Texas,Gregg,32.5193,-94.7622,98075,568.4
Tracy,CA,California,San Joaquin,37.7269,-121.4523,98022,1349.6
Prescott Valley,AZ,Arizona,Yavapai,34.598,-112.3185,97901,435.0
Beaverton,OR,Oregon,Washington,45.4779,-122.8168,97466,1940.8
Portsmouth,NH,New Hampshire,Rockingham,43.058,-70.7826,97455,528.0
Portsmouth,VA,Virginia,Portsmouth,36.8468,-76.354,97454,1101.0
Fishers,IN,Indiana,Hamilton,39.9588,-85.9659,97154,1012.1
Orem,UT,Utah,Utah,40.2981,-111.6994,96734,2030.5
Sandy,UT,Utah,Salt Lake,40.5709,-111.8506,96272,1532.6
Sunrise,FL,Florida,Broward,26.1547,-80.2997,96220,2256.2
San Tan Valley,AZ,Arizona,Pinal,33.1786,-111.5629,96127,534.6
Compton,CA,California,Los Angeles,33.893,-118.2274,96083,3688.9
Arden-Arcade,CA,California,Sacramento,38.6017,-121.3845,95909,2275.6
Hanford,CA,California,Kings,36.3274,-119.6549,95459,1267.2
Boca Raton,FL,Florida,Palm Beach,26.3752,-80.108,95347,1307.0
Middletown,OH,Ohio,Butler,39.5033,-84.3659,95296,720.5
Livonia,MI,Michigan,Wayne,42.3972,-83.3733,95294,1016.4
Carson,CA,California,Los Angeles,33.8374,-118.2559,95104,1883.1
Lawrence,KS,Kansas,Douglas,38.9597,-95.2642,94745,1100.5
Slidell,LA,Louisiana,St. Tammany,30.2887,-89.7828,94498,713.2
Blacksburg,VA,Virginia,Montgomery,37.23,-80.4279,94398,868.4
San Marcos,CA,California,San Diego,33.135,-117.1743,94313,1512.3
Goodyear,AZ,Arizona,Maricopa,33.2614,-112.3622,93651,168.6
Edmond,OK,Oklahoma,Oklahoma,35.6689,-97.416,93522,425.8
Mayagüez,PR,Puerto Rico,Mayagüez,18.2003,-67.1397,93426,1101.4
Fall River,MA,Massachusetts,Bristol,41.7136,-71.1015,93339,1044.6
South Gate,CA,California,Los Angeles,33.9447,-118.1926,93308,5063.5
Suffolk,VA,Virginia,Suffolk,36.6953,-76.6398,93268,88.4
Terre Haute,IN,Indiana,Vigo,39.466,-87.3751,93247,673.9
Missoula,MT,Montana,Missoula,46.8751,-114.0214,92863,835.9
Santa Monica,CA,California,Los Angeles,34.0235,-118.481,92828,4205.3
Roswell,GA,Georgia,Fulton,34.0391,-84.3513,92688,899.5
Vineland,NJ,New Jersey,Cumberland,39.4653,-74.9981,92364,335.4
Plantation,FL,Florida,Broward,26.1259,-80.2617,92212,1675.1
Alafaya,FL,Florida,Orange,28.528,-81.1868,92080,1152.6
Kirkland,WA,Washington,King,47.697,-122.2057,91656,1976.4
Hoover,AL,Alabama,Jefferson,33.3763,-86.8068,91371,685.8
Westminster,CA,California,Orange,33.7523,-117.9938,91267,3494.6
Lawton,OK,Oklahoma,Comanche,34.6175,-98.4202,91247,443.5
San Leandro,CA,California,Alameda,37.7074,-122.1599,91176,2622.4
Auburn,AL,Alabama,Lee,32.6087,-85.4903,91047,414.4
Norwalk,CT,Connecticut,Fairfield,41.1144,-73.4215,90821,1497.3
O'Fallon,MO,Missouri,St. Charles,38.785,-90.7175,90802,1133.4
Chino,CA,California,San Bernardino,33.9836,-117.6654,90279,1162.9
Germantown,MD,Maryland,Montgomery,39.1755,-77.2643,90235,2029.4
Dover,NH,New Hampshire,Strafford,43.1887,-70.8845,89874,461.1
Bismarck,ND,North Dakota,Burleigh,46.8143,-100.7694,89825,817.5
Waukegan,IL,Illinois,Lake,42.3698,-87.8716,89751,1389.0
Buckeye,AZ,Arizona,Maricopa,33.4314,-112.6429,89711,73.2
Town 'n' Country,FL,Florida,Hillsborough,28.0106,-82.5763,89679,1569.2
Clifton,NJ,New Jersey,Passaic,40.863,-74.1575,89460,2917.6
Bloomington,MN,Minnesota,Hennepin,44.8306,-93.3151,89436,948.2
Mount Pleasant,SC,South Carolina,Charleston,32.8537,-79.8203,88900,697.0
Florence,SC,South Carolina,Florence,34.178,-79.7898,88709,636.0
Newton,MA,Massachusetts,Middlesex,42.3316,-71.2085,88647,1912.8
State College,PA,Pennsylvania,Centre,40.7909,-77.8567,88526,3567.5
Livermore,CA,California,Alameda,37.6868,-121.7607,88403,1339.7
Rapid City,SD,South Dakota,Pennington,44.0716,-103.2204,88076,540.1
Decatur,IL,Illinois,Macon,39.8557,-88.9342,88002,646.8
Dalton,GA,Georgia,Whitfield,34.769,-84.972,87944,612.1
Conroe,TX,Texas,Montgomery,30.3238,-95.4824,87930,473.9
Hawthorne,CA,California,Los Angeles,33.9147,-118.3476,87863,5417.3
Lawrence,MA,Massachusetts,Essex,42.7002,-71.1626,87798,4458.5
New Braunfels,TX,Texas,Comal,29.6994,-98.1148,87549,725.5
Citrus Heights,CA,California,Sacramento,38.6948,-121.288,87521,2380.9
Jackson,MI,Michigan,Jackson,42.2431,-84.4038,87230,1148.8
Whittier,CA,California,Los Angeles,33.9678,-118.0188,87184,2235.7
Muncie,IN,Indiana,Delaware,40.1989,-85.395,87037,954.4
Troy,MI,Michigan,Oakland,42.5817,-83.1457,86912,970.3
Homosassa Springs,FL,Florida,Citrus,28.8119,-82.5392,86578,223.5
Port Huron,MI,Michigan,St. Clair,42.9821,-82.4388,86440,1378.0
Napa,CA,California,Napa,38.2975,-122.301,86130,1675.1
Deerfield Beach,FL,Florida,Broward,26.305,-80.1277,86062,2087.9
Springdale,AR,Arkansas,Washington,36.1901,-94.1574,85887,631.2
Newport Beach,CA,California,Orange,33.6151,-117.8668,85806,1406.8
Anderson,IN,Indiana,Madison,40.0891,-85.6892,85700,505.6
San Ramon,CA,California,Contra Costa,37.7624,-121.9365,85688,1565.7
Lake Forest,CA,California,Orange,33.6605,-117.6714,85516,1955.8
Mission,TX,Texas,Hidalgo,26.2039,-98.3256,85311,890.7
Auburn,WA,Washington,King,47.3039,-122.2108,85306,1056.3
Brooklyn Park,MN,Minnesota,Hennepin,45.1112,-93.3505,85247,1187.1
Bryan,TX,Texas,Brazos,30.665,-96.3807,85204,610.4
Springfield,OH,Ohio,Clark,39.93,-83.7959,85121,876.6
Hattiesburg,MS,Mississippi,Forrest,31.3074,-89.317,85086,332.4
Westland,MI,Michigan,Wayne,42.3192,-83.3805,84961,1544.1
Cicero,IL,Illinois,Cook,41.8445,-87.7593,84905,5363.3
Albany,GA,Georgia,Dougherty,31.5776,-84.1762,84901,509.3
Fort Myers,FL,Florida,Lee,26.6194,-81.8302,84694,809.2
Pine Hills,FL,Florida,Orange,28.5818,-81.4692,84289,2577.7
Atascocita,TX,Texas,Harris,29.9777,-95.1953,84222,1323.8
Buena Park,CA,California,Orange,33.8572,-118.0046,83974,3015.2
Redwood City,CA,California,San Mateo,37.5025,-122.2253,83905,1687.6
Farmington Hills,MI,Michigan,Oakland,42.486,-83.3771,83749,939.3
Alton,IL,Illinois,Madison,38.9037,-90.152,83705,652.3
Melbourne,FL,Florida,Brevard,28.1086,-80.6627,83500,719.5
Miami Beach,FL,Florida,Miami-Dade,25.8171,-80.1396,83469,4489.1
Alhambra,CA,California,Los Angeles,34.084,-118.1355,83174,4275.8
Williamsburg,VA,Virginia,Williamsburg,37.2693,-76.7076,83021,649.4
Madera,CA,California,Madera,36.963,-120.0778,82772,1536.8
Warwick,RI,Rhode Island,Kent,41.7062,-71.4334,82666,894.0
Cranston,RI,Rhode Island,Providence,41.7658,-71.4858,82654,1106.8
Baytown,TX,Texas,Harris,29.7587,-94.9671,82543,794.0
Largo,FL,Florida,Pinellas,27.9088,-82.7712,82505,1757.8
Silver Spring,MD,Maryland,Montgomery,39.0028,-77.0207,82472,3970.7
Lakewood,CA,California,Los Angeles,33.8471,-118.1222,82419,3272.3
Mountain View,CA,California,Santa Clara,37.4001,-122.0796,82409,2586.4
Kankakee,IL,Illinois,Kankakee,41.102,-87.8643,82095,662.0
Johns Creek,GA,Georgia,Fulton,34.0333,-84.2027,82068,1059.5
Flagstaff,AZ,Arizona,Coconino,35.1872,-111.6194,81682,428.7
Franklin,TN,Tennessee,Williamson,35.92,-86.8516,81531,723.1
Joplin,MO,Missouri,Jasper,37.0757,-94.5018,81025,512.8
Parma,OH,Ohio,Cuyahoga,41.3843,-81.7286,80880,1516.1
Layton,UT,Utah,Davis,41.077,-111.962,80858,1324.4
New Rochelle,NY,New York,Westchester,40.9304,-73.7836,80685,2979.1
Anderson,SC,South Carolina,Anderson,34.5211,-82.6478,80657,718.0
Lebanon,PA,Pennsylvania,Lebanon,40.3412,-76.4228,80620,2388.4
Somerville,MA,Massachusetts,Middlesex,42.3908,-71.1014,80608,7600.3
Yauco,PR,Puerto Rico,Yauco,18.0344,-66.8615,80307,2065.0
St. Joseph,MO,Missouri,Buchanan,39.7598,-94.821,80099,660.8
Plymouth,MN,Minnesota,Hennepin,45.0225,-93.4617,80034,931.0
Tustin,CA,California,Orange,33.7311,-117.8107,79895,2805.2
Zephyrhills,FL,Florida,Pasco,28.2409,-82.1797,79795,649.2
Milpitas,CA,California,Santa Clara,37.4336,-121.8921,79593,2153.0
Florence,AL,Alabama,Lauderdale,34.8303,-87.6655,79590,591.9
Pleasanton,CA,California,Alameda,37.6663,-121.8805,79558,1279.1
Boynton Beach,FL,Florida,Palm Beach,26.5281,-80.0811,79479,1865.4
Texarkana,TX,Texas,Bowie,33.45,-94.0847,79304,451.8
Folsom,CA,California,Sacramento,38.6668,-121.1422,79201,1102.1
Bellflower,CA,California,Los Angeles,33.888,-118.1271,79070,4818.3
Pharr,TX,Texas,Hidalgo,26.1685,-98.1904,78997,1285.9
Homestead,FL,Florida,Miami-Dade,25.4665,-80.4472,78885,1764.6
Valdosta,GA,Georgia,Lowndes,30.8502,-83.2788,78786,604.3
Upland,CA,California,San Bernardino,34.1178,-117.6604,78624,1916.3
Evanston,IL,Illinois,Cook,42.0464,-87.6943,78454,3671.6
Newark,OH,Ohio,Licking,40.0706,-82.425,78447,923.5
Elizabethtown,KY,Kentucky,Hardin,37.7031,-85.8773,78446,423.7
St. Augustine,FL,Florida,St. Johns,29.8976,-81.31,78386,610.9
Rancho Cordova,CA,California,Sacramento,38.5737,-121.2527,78358,830.9
Alameda,CA,California,Alameda,37.7668,-122.267,78320,2949.8
Chino Hills,CA,California,San Bernardino,33.9508,-117.7254,78229,716.0
Perris,CA,California,Riverside,33.7898,-117.2233,78106,951.5
Schaumburg,IL,Illinois,Cook,42.0308,-88.0838,78053,1464.7
Kendall,FL,Florida,Miami-Dade,25.6697,-80.3556,78007,1852.2
Camarillo,CA,California,Ventura,34.223,-119.0321,77795,1345.1
Anniston,AL,Alabama,Calhoun,33.6712,-85.8135,77690,181.3
Sumter,SC,South Carolina,Sumter,33.9392,-80.393,77626,468.1
Jonesboro,AR,Arkansas,Craighead,35.8212,-90.6791,77520,372.7
Hammond,IN,Indiana,Lake,41.6168,-87.4909,77491,1293.5
Carmichael,CA,California,Sacramento,38.6318,-121.3263,77358,1904.6
Arlington Heights,IL,Illinois,Cook,42.0955,-87.9826,77283,1745.5
Morgantown,WV,West Virginia,Monongalia,39.6383,-79.9464,77193,1172.6
Wyoming,MI,Michigan,Kent,42.8908,-85.7066,76625,1186.0
Cheyenne,WY,Wyoming,Laramie,41.135,-104.7902,76456,767.1
Pasco,WA,Washington,Franklin,46.2506,-119.1305,76398,844.4
Watsonville,CA,California,Santa Cruz,36.9206,-121.7708,76285,2981.0
Southfield,MI,Michigan,Oakland,42.4765,-83.2605,76196,1073.1
Wausau,WI,Wisconsin,Marathon,44.962,-89.6459,76016,777.2
Rochester Hills,MI,Michigan,Oakland,42.6645,-83.1563,75990,875.0
Loveland,CO,Colorado,Larimer,40.4166,-105.0623,75938,915.7
Alexandria,LA,Louisiana,Rapides,31.2923,-92.4702,75835,630.8
Pittsburg,CA,California,Contra Costa,38.0182,-121.8965,75701,1566.7
Hammond,LA,Louisiana,Tangipahoa,30.5061,-90.4563,75688,558.0
South Jordan,UT,Utah,Salt Lake,40.557,-111.9784,75617,1282.3
Battle Creek,MI,Michigan,Calhoun,42.2985,-85.2296,75608,463.1
Bethlehem,PA,Pennsylvania,Northampton,40.6266,-75.3679,75599,1526.4
Fajardo,PR,Puerto Rico,Fajardo,18.3331,-65.6589,75549,1156.5
Davis,CA,California,Yolo,38.5553,-121.737,75468,2657.8
Apple Valley,CA,California,San Bernardino,34.5352,-117.2109,75311,367.7
Pawtucket,RI,Rhode Island,Providence,41.8744,-71.3743,75200,3199.5
Wheeling,WV,West Virginia,Ohio,40.0752,-80.6951,75065,758.1
Flower Mound,TX,Texas,Denton,33.0343,-97.1146,75050,725.7
Harrisonburg,VA,Virginia,Harrisonburg,38.4362,-78.8735,74901,1192.6
Cedar Park,TX,Texas,Williamson,30.5105,-97.8197,74741,1165.1
Oshkosh,WI,Wisconsin,Winnebago,44.0227,-88.5619,74737,953.8
Winchester,VA,Virginia,Winchester,39.1735,-78.1746,74593,1172.3
Caguas,PR,Puerto Rico,Caguas,18.2319,-66.0388,74502,2587.9
Ellicott City,MD,Maryland,Howard,39.2774,-76.8345,74432,942.8
Pocatello,ID,Idaho,Bannock,42.8724,-112.4647,74359,648.2
Hilton Head Island,SC,South Carolina,Beaufort,32.1896,-80.7499,74248,373.5
New Britain,CT,Connecticut,Hartford,41.6759,-72.7862,74022,2090.9
Mansfield,OH,Ohio,Richland,40.7656,-82.5275,74021,581.7
Woodbury,MN,Minnesota,Washington,44.9057,-92.923,74014,788.9
Lauderhill,FL,Florida,Broward,26.1605,-80.2241,73935,3256.7
Lehi,UT,Utah,Utah,40.4136,-111.8725,73911,907.0
Bolingbrook,IL,Illinois,Will,41.6901,-88.1021,73807,1151.6
Dale City,VA,Virginia,Prince William,38.6473,-77.3459,73716,1953.9
Missouri City,TX,Texas,Fort Bend,29.563,-95.5365,73682,1002.8
Lake Jackson,TX,Texas,Brazoria,29.0516,-95.4521,73478,533.4
Altoona,PA,Pennsylvania,Blair,40.5082,-78.4007,73374,1722.1
Doral,FL,Florida,Miami-Dade,25.8152,-80.3565,73126,1740.7
Owensboro,KY,Kentucky,Daviess,37.7575,-87.1172,73115,1117.9
Centreville,VA,Virginia,Fairfax,38.839,-77.4389,73064,2401.1
Mount Vernon,NY,New York,Westchester,40.9136,-73.8291,72855,5943.4
Baldwin Park,CA,California,Los Angeles,34.0829,-117.9722,72813,4404.7
Broomfield,CO,Colorado,Broomfield,39.9542,-105.0526,72697,813.3
Redlands,CA,California,San Bernardino,34.0512,-117.1712,72649,768.3
Cleveland,TN,Tennessee,Bradley,35.1817,-84.8707,72589,642.1
Dothan,AL,Alabama,Houston,31.2336,-85.407,72389,294.9
Camden,NJ,New Jersey,Camden,39.9361,-75.1073,72381,3192.4
Redmond,WA,Washington,King,47.6763,-122.1169,72166,1583.8
Framingham,MA,Massachusetts,Middlesex,42.3085,-71.4368,72089,1123.1
Jackson,TN,Tennessee,Madison,35.6538,-88.8354,71983,442.9
Janesville,WI,Wisconsin,Rock,42.6854,-89.0135,71907,728.1
Juana Díaz,PR,Puerto Rico,Juana Díaz,18.0532,-66.5044,71759,1913.2
Mansfield,TX,Texas,Tarrant,32.569,-97.1213,71375,751.4
Waukesha,WI,Wisconsin,Waukesha,43.0087,-88.2464,71307,1095.5
Tamarac,FL,Florida,Broward,26.2056,-80.2539,71140,2212.1
Wenatchee,WA,Washington,Chelan,47.436,-120.3295,71119,1249.3
Daytona Beach,FL,Florida,Volusia,29.1995,-81.0982,71041,404.5
Castle Rock,CO,Colorado,Douglas,39.3763,-104.8535,71037,733.9
Redondo Beach,CA,California,Los Angeles,33.8577,-118.3765,70998,4148.2
Wilmington,DE,Delaware,New Castle,39.7415,-75.5416,70926,2503.9
San Marcos,TX,Texas,Hays,29.8734,-97.9356,70864,682.0
Union City,CA,California,Alameda,37.6032,-122.0181,70828,1494.1
Eldersburg,MD,Maryland,Carroll,39.4041,-76.9528,70639,296.1
Conway,AR,Arkansas,Faulkner,35.0753,-92.4692,70555,557.3
Bayonne,NJ,New Jersey,Hudson,40.6668,-74.1158,70553,4318.5
Guaynabo,PR,Puerto Rico,Guaynabo,18.3832,-66.1134,70542,2139.3
Rocklin,CA,California,Placer,38.8075,-121.2489,70317,1307.2
Passaic,NJ,New Jersey,Passaic,40.8574,-74.1282,70308,8600.8
Sheboygan,WI,Wisconsin,Sheboygan,43.7403,-87.7316,70234,1188.8
Casas Adobes,AZ,Arizona,Pima,32.3423,-111.0113,70224,1021.8
St. Charles,MO,Missouri,St. Charles,38.7954,-90.5157,70218,1099.0
Maple Grove,MN,Minnesota,Hennepin,45.1089,-93.4626,69900,848.3
Walnut Creek,CA,California,Contra Costa,37.9024,-122.0399,69876,1364.5
Dublin,CA,California,Alameda,37.7161,-121.8963,69818,1619.0
North Richland Hills,TX,Texas,Tarrant,32.8604,-97.218,69817,1500.5
Gary,IN,Indiana,Lake,41.5905,-87.3473,69739,584.5
Glen Burnie,MD,Maryland,Anne Arundel,39.156,-76.6071,69739,1553.4
Bristol,TN,Tennessee,Sullivan,36.5572,-82.2154,69734,318.7
Decatur,AL,Alabama,Morgan,34.5731,-86.9905,69710,386.0
West Bend,WI,Wisconsin,Washington,43.4173,-88.1818,69672,785.3
Lodi,CA,California,San Joaquin,38.1218,-121.2932,69467,1884.2
Lima,OH,Ohio,Allen,40.741,-84.112,69440,1046.5
Florida,PR,Puerto Rico,Florida,18.3643,-66.5611,69427,1170.1
Lakeville,MN,Minnesota,Dakota,44.6774,-93.252,69026,693.6
Blaine,MN,Minnesota,Anoka,45.1696,-93.2077,68999,763.3
Poinciana,FL,Florida,Polk,28.1217,-81.4821,68922,366.8
East Orange,NJ,New Jersey,Essex,40.7651,-74.2117,68918,6355.4
Noblesville,IN,Indiana,Hamilton,40.0355,-86.0042,68885,723.3
Gaithersburg,MD,Maryland,Montgomery,39.1346,-77.2131,68827,2539.2
Lake Elsinore,CA,California,Riverside,33.6847,-117.3344,68822,648.3
Palo Alto,CA,California,Santa Clara,37.3905,-122.1468,68624,1091.2
Eastvale,CA,California,Riverside,33.9617,-117.5803,68539,2003.6
Tulare,CA,California,Tulare,36.1995,-119.34,68395,1207.8
Rogers,AR,Arkansas,Benton,36.317,-94.1531,68340,672.9
Yorba Linda,CA,California,Orange,33.889,-117.7714,68319,1317.8
Parkersburg,WV,West Virginia,Wood,39.2623,-81.542,68217,974.3
Eagan,MN,Minnesota,Dakota,44.817,-93.1638,68205,822.0
Weston,FL,Florida,Broward,26.1006,-80.4054,68148,1114.1
Longview,WA,Washington,Cowlitz,46.1461,-122.963,67958,989.2
Bay City,MI,Michigan,Bay,43.5902,-83.8887,67917,1249.3
Dubuque,IA,Iowa,Dubuque,42.5002,-90.707,67916,724.9
Union City,NJ,New Jersey,Hudson,40.7675,-74.0323,67903,20421.9
Porterville,CA,California,Tulare,36.0643,-119.0338,67887,1222.8
Mount Vernon,WA,Washington,Skagit,48.4203,-122.3115,67767,1114.6
Palatine,IL,Illinois,Cook,42.118,-88.043,67754,1856.8
El Paso de Robles,CA,California,San Luis Obispo,35.6394,-120.656,67696,618.8
West Des Moines,IA,Iowa,Polk,41.5521,-93.7806,67640,545.4
Lynwood,CA,California,Los Angeles,33.924,-118.2016,67497,5553.4
Skokie,IL,Illinois,Cook,42.036,-87.74,67444,2428.5
Sherman,TX,Texas,Grayson,33.6273,-96.6221,67210,361.1
Rockville,MD,Maryland,Montgomery,39.0834,-77.1553,67095,1934.4
Haverhill,MA,Massachusetts,Essex,42.7838,-71.0871,67093,745.4
Hanover,PA,Pennsylvania,York,39.8118,-76.9836,67037,1637.3
Shawnee,KS,Kansas,Johnson,39.0158,-94.8076,67021,605.6
Rome,GA,Georgia,Floyd,34.2662,-85.1863,66998,445.0
Schenectady,NY,New York,Schenectady,42.8025,-73.9275,66809,2334.1
South Hill,WA,Washington,Pierce,47.1198,-122.2853,66713,1331.7
DeKalb,IL,Illinois,DeKalb,41.9314,-88.7481,66624,978.5
Petaluma,CA,California,Sonoma,38.2423,-122.6266,66609,1630.3
Sammamish,WA,Washington,King,47.6017,-122.0416,66532,1233.6
Georgetown,TX,Texas,Williamson,30.666,-97.6966,66514,508.2
Carbondale,IL,Illinois,Jackson,37.7221,-89.2237,66482,563.7
Delray Beach,FL,Florida,Palm Beach,26.455,-80.0905,66434,1670.9
Dundalk,MD,Maryland,Baltimore,39.2704,-76.4942,66426,1883.0
Kenner,LA,Louisiana,Jefferson,30.0109,-90.2549,66411,1732.2
Albany,OR,Oregon,Linn,44.6272,-123.0965,66405,1190.4
Ankeny,IA,Iowa,Polk,41.7288,-93.6031,66346,820.4
South San Francisco,CA,California,San Mateo,37.6538,-122.4196,66331,2805.8
Castro Valley,CA,California,Alameda,37.7088,-122.0626,66324,1475.6
Bethesda,MD,Maryland,Montgomery,38.9866,-77.1188,66294,1895.0
Saratoga Springs,NY,New York,Saratoga,43.0674,-73.7775,66290,386.0
Corvallis,OR,Oregon,Benton,44.5698,-123.2779,66090,1586.3
Brentwood,NY,New York,Suffolk,40.7839,-73.2522,66035,2212.3
Ames,IA,Iowa,Story,42.0256,-93.6217,66027,929.0
Glens Falls,NY,New York,Warren,43.3109,-73.6458,66024,1436.0
Michigan City,IN,Indiana,LaPorte,41.7092,-86.869,65946,590.1
Victoria,TX,Texas,Victoria,28.8287,-96.9849,65643,691.7
Malden,MA,Massachusetts,Middlesex,42.4305,-71.0576,65602,4647.1
Weirton,WV,West Virginia,Hancock,40.406,-80.5671,65447,394.7
Novi,MI,Michigan,Oakland,42.4786,-83.4893,65369,771.6
Guayama,PR,Puerto Rico,Guayama,17.9743,-66.1104,65343,2100.3
Alpharetta,GA,Georgia,Fulton,34.0704,-84.2738,65187,955.4
Wesley Chapel,FL,Florida,Pasco,28.2106,-82.3238,65134,532.1
Waltham,MA,Massachusetts,Middlesex,42.3889,-71.2423,64655,1896.6
Laguna Niguel,CA,California,Orange,33.5275,-117.705,64608,1704.4
San Clemente,CA,California,Orange,33.4499,-117.6102,64600,1365.7
North Little Rock,AR,Arkansas,Pulaski,34.7807,-92.2371,64444,481.0
Fairbanks,AK,Alaska,Fairbanks North Star,64.8353,-147.6533,64160,382.2
Florence-Graham,CA,California,Los Angeles,33.9682,-118.2447,64109,7127.9
Eden Prairie,MN,Minnesota,Hennepin,44.8488,-93.4595,64048,765.5
Twin Rivers,NJ,New Jersey,Mercer,40.2631,-74.4917,64012,2208.1
Pflugerville,TX,Texas,Travis,30.4515,-97.6018,64007,961.0
Casper,WY,Wyoming,Natrona,42.842,-106.3208,63962,845.5
Burnsville,MN,Minnesota,Dakota,44.7648,-93.2793,63926,952.6
Grand Forks,ND,North Dakota,Grand Forks,47.9214,-97.0884,63767,782.8
Brentwood,CA,California,Contra Costa,37.9356,-121.719,63618,1636.6
Millcreek,UT,Utah,Salt Lake,40.6892,-111.8292,63430,1824.5
Elmira,NY,New York,Chemung,42.0938,-76.8097,63404,1450.0
Sebring,FL,Florida,Highlands,27.477,-81.453,63287,381.3
La Habra,CA,California,Orange,33.9282,-117.9515,63287,3207.1
Coon Rapids,MN,Minnesota,Anoka,45.1755,-93.3094,63269,1071.3
Bossier City,LA,Louisiana,Bossier,32.5224,-93.6668,63168,601.3
Hamilton,OH,Ohio,Butler,39.3939,-84.5653,63127,1118.9
Taylor,MI,Michigan,Wayne,42.226,-83.2688,63071,1000.0
Lakewood,WA,Washington,Pierce,47.1628,-122.5299,62972,1370.7
Greenwood,IN,Indiana,Johnson,39.6019,-86.1073,62914,813.3
Bellevue,NE,Nebraska,Sarpy,41.1485,-95.939,62888,1149.5
Montebello,CA,California,Los Angeles,34.0155,-118.1108,62828,2906.8
Moore,OK,Oklahoma,Cleveland,35.3293,-97.4757,62633,1078.0
Council Bluffs,IA,Iowa,Pottawattamie,41.2369,-95.8516,62617,560.6
Rowlett,TX,Texas,Dallas,32.9155,-96.5489,62606,1217.7
Spring,TX,Texas,Harris,30.0613,-95.383,62569,1056.0
Port Charlotte,FL,Florida,Charlotte,26.9918,-82.114,62531,872.2
Reston,VA,Virginia,Fairfax,38.9497,-77.3461,62453,1545.6
Pico Rivera,CA,California,Los Angeles,33.9901,-118.0888,62383,2902.3
Dearborn Heights,MI,Michigan,Wayne,42.3164,-83.2769,62334,1830.0
Port Orange,FL,Florida,Volusia,29.1085,-81.0137,62197,918.3
Encinitas,CA,California,San Diego,33.0492,-117.261,62140,1275.8
Springfield,OR,Oregon,Lane,44.0538,-122.9811,62138,1527.2
Great Falls,MT,Montana,Cascade,47.5022,-111.2996,62112,980.4
Rocky Mount,NC,North Carolina,Nash,35.9685,-77.804,61952,466.1
Commerce City,CO,Colorado,Adams,39.8641,-104.843,61516,592.9
Pontiac,MI,Michigan,Oakland,42.6493,-83.2878,61498,1159.4
The Hammocks,FL,Florida,Miami-Dade,25.67,-80.4482,61461,3117.2
Wellington,FL,Florida,Palm Beach,26.6461,-80.2699,61445,558.0
San Rafael,CA,California,Marin,37.9905,-122.5221,61158,1377.5
Monterey Park,CA,California,Los Angeles,34.0497,-118.1326,61153,3049.6
La Mesa,CA,California,San Diego,32.7703,-117.0204,61040,2557.0
Woodland,CA,California,Yolo,38.6712,-121.75,60977,1506.6
Marietta,GA,Georgia,Cobb,33.9533,-84.5422,60962,999.1
Chapel Hill,NC,North Carolina,Orange,35.9271,-79.0391,60920,1106.8
Gardena,CA,California,Los Angeles,33.8943,-118.3072,60917,3934.5
Meriden,CT,Connecticut,New Haven,41.5369,-72.7946,60790,968.2
Bristol,CT,Connecticut,Hartford,41.6812,-72.9407,60733,877.9
Revere,MA,Massachusetts,Suffolk,42.4189,-71.004,60720,3614.7
Medford,MA,Massachusetts,Middlesex,42.4234,-71.1087,60708,2778.9
Palm Harbor,FL,Florida,Pinellas,28.0847,-82.7481,60682,1374.3
Cupertino,CA,California,Santa Clara,37.3168,-122.0466,60681,2038.2
Jupiter,FL,Florida,Palm Beach,26.92,-80.1128,60629,1162.9
Hendersonville,TN,Tennessee,Sumner,36.3063,-86.5997,60628,707.4
North Miami,FL,Florida,Miami-Dade,25.9008,-80.1686,60449,2851.4
Des Plaines,IL,Illinois,Cook,42.0345,-87.9008,60413,1581.4
Taylorsville,UT,Utah,Salt Lake,40.6569,-111.9493,60295,2133.0
West Allis,WI,Wisconsin,Milwaukee,43.0068,-88.0296,60220,2030.7
Sanford,FL,Florida,Seminole,28.7891,-81.2757,60215,988.0
Huntersville,NC,North Carolina,Mecklenburg,35.406,-80.8716,60166,535.0
Euless,TX,Texas,Tarrant,32.8508,-97.08,60134,1349.1
Richland,WA,Washington,Benton,46.2824,-119.2939,59718,564.5
Santee,CA,California,San Diego,32.8554,-116.9851,59679,1340.3
White Plains,NY,New York,Westchester,41.022,-73.7547,59452,2306.7
Hoboken,NJ,New Jersey,Hudson,40.7452,-74.0281,59369,16455.4
Kokomo,IN,Indiana,Howard,40.464,-86.1277,59263,611.2
Taunton,MA,Massachusetts,Bristol,41.9036,-71.0943,59076,473.9
St. Clair Shores,MI,Michigan,Macomb,42.4925,-82.8961,59046,1956.3
Towson,MD,Maryland,Baltimore,39.3944,-76.619,59014,1569.8
Caldwell,ID,Idaho,Canyon,43.6453,-116.6594,58872,950.6
South Whittier,CA,California,Los Angeles,33.9336,-118.0312,58800,4239.9
Orland Park,IL,Illinois,Cook,41.6075,-87.8619,58622,1023.3
Stonecrest,GA,Georgia,DeKalb,33.6842,-84.1372,58602,564.3
Palm Beach Gardens,FL,Florida,Palm Beach,26.8466,-80.1679,58482,374.7
Royal Oak,MI,Michigan,Oakland,42.5084,-83.1539,58368,1940.2
Margate,FL,Florida,Broward,26.2466,-80.2119,58331,2576.9
Blue Springs,MO,Missouri,Jackson,39.0124,-94.2721,58265,953.2
Shoreline,WA,Washington,King,47.7564,-122.3426,58213,1886.1
Midwest City,OK,Oklahoma,Oklahoma,35.463,-97.371,58146,908.2
Bowie,MD,Maryland,Prince George's,38.9549,-76.7406,58113,1098.4
Apex,NC,North Carolina,Wake,35.7237,-78.8743,58066,969.7
Oak Lawn,IL,Illinois,Cook,41.7139,-87.7528,58032,2497.1
Carson City,NV,Nevada,Carson City,39.1511,-119.7476,57957,147.6
Fountainebleau,FL,Florida,Miami-Dade,25.7723,-80.346,57957,5773.6
Queen Creek,AZ,Arizona,Maricopa,33.2454,-111.6173,57728,493.8
Leander,TX,Texas,Williamson,30.5728,-97.8618,57696,620.1
Bartlett,TN,Tennessee,Shelby,35.2337,-89.8195,57639,708.7
St. Cloud,FL,Florida,Osceola,28.2363,-81.2779,57610,804.8
Coconut Creek,FL,Florida,Broward,26.2803,-80.1842,57553,2105.2
Kettering,OH,Ohio,Montgomery,39.6956,-84.1494,57503,1140.3
Parker,CO,Colorado,Douglas,39.5084,-104.7753,57311,958.7
St. Peters,MO,Missouri,St. Charles,38.7825,-90.6061,57289,989.2
Fountain Valley,CA,California,Orange,33.7105,-117.9514,57139,2388.5
Maricopa,AZ,Arizona,Pinal,33.0408,-112.0011,57075,457.5
Berwyn,IL,Illinois,Cook,41.8433,-87.7909,56960,5424.0
National City,CA,California,San Diego,32.6654,-117.0983,56846,3223.3
Lenexa,KS,Kansas,Johnson,38.9609,-94.8018,56755,621.0
Highland,CA,California,San Bernardino,34.1113,-117.165,56733,1150.5
Arcadia,CA,California,Los Angeles,34.1342,-118.0373,56697,2016.0
Mount Prospect,IL,Illinois,Cook,42.0641,-87.9375,56510,1951.0
Lake Havasu City,AZ,Arizona,Mohave,34.5006,-114.3113,56510,462.1
Tinley Park,IL,Illinois,Cook,41.567,-87.8049,55988,1343.2
DeSoto,TX,Texas,Dallas,32.5992,-96.8633,55761,948.9
New Brunswick,NJ,New Jersey,Middlesex,40.487,-74.445,55671,4131.4
Chicopee,MA,Massachusetts,Hampden,42.1764,-72.5719,55636,930.2
Madison,AL,Alabama,Madison,34.7114,-86.7626,55551,645.1
West Haven,CT,Connecticut,New Haven,41.2739,-72.9672,55518,1963.4
Smyrna,GA,Georgia,Cobb,33.8633,-84.5168,55460,1397.6
Huntington Park,CA,California,Los Angeles,33.98,-118.2167,55439,7414.5
Wylie,TX,Texas,Collin,33.0362,-96.5161,55426,894.0
Diamond Bar,CA,California,Los Angeles,33.9992,-117.8161,55339,1450.6
Apple Valley,MN,Minnesota,Dakota,44.7457,-93.2004,55237,1229.6
Perth Amboy,NJ,New Jersey,Middlesex,40.5202,-74.2724,55046,4272.5
Bradenton,FL,Florida,Manatee,27.4901,-82.5757,54918,1544.3
Brookhaven,GA,Georgia,DeKalb,33.8743,-84.3314,54902,1800.6
Hacienda Heights,CA,California,Los Angeles,33.997,-117.9727,54841,1917.5
Manhattan,KS,Kansas,Riley,39.1886,-96.6048,54794,1067.0
Tigard,OR,Oregon,Washington,45.4237,-122.7845,54750,1642.2
Tamiami,FL,Florida,Miami-Dade,25.7556,-80.4016,54525,3054.8
Yucaipa,CA,California,San Bernardino,34.0336,-117.0429,54312,742.6
Westchester,FL,Florida,Miami-Dade,25.7471,-80.3523,54238,2644.4
Peabody,MA,Massachusetts,Essex,42.5335,-70.9725,54200,1260.4
Plainfield,NJ,New Jersey,Union,40.6154,-74.4157,54183,3255.8
Southaven,MS,Mississippi,DeSoto,34.9514,-89.9786,54141,514.0
Apopka,FL,Florida,Orange,28.7015,-81.5316,54110,589.3
Oak Park,IL,Illinois,Cook,41.8872,-87.7899,54100,4280.3
Horizon West,FL,Florida,Orange,28.4417,-81.6146,54038,545.0
Severn,MD,Maryland,Anne Arundel,39.1355,-76.6956,53955,1123.7
Paramount,CA,California,Los Angeles,33.8977,-118.1651,53904,4406.9
Colton,CA,California,San Bernardino,34.0538,-117.3255,53894,1346.2
Kentwood,MI,Michigan,Kent,42.8852,-85.5926,53884,955.9
Aspen Hill,MD,Maryland,Montgomery,39.0927,-77.0826,53850,2189.9
Minnetonka,MN,Minnesota,Hennepin,44.9322,-93.4598,53809,771.2
Wheaton,IL,Illinois,DuPage,41.8561,-88.1085,53762,1813.5
West Sacramento,CA,California,Yolo,38.5557,-121.5505,53589,963.4
Casa Grande,AZ,Arizona,Pinal,32.9069,-111.7624,53488,197.6
Normal,IL,Illinois,McLean,40.5217,-88.9884,53446,1177.1
Kendale Lakes,FL,Florida,Miami-Dade,25.7081,-80.4078,53392,2664.8
San Jacinto,CA,California,Riverside,33.797,-116.9916,53299,725.7
Novato,CA,California,Marin,38.092,-122.5575,53214,755.8
Pinellas Park,FL,Florida,Pinellas,27.8589,-82.7078,53130,1280.7
Galveston,TX,Texas,Galveston,29.2484,-94.8913,53092,473.1
Edina,MN,Minnesota,Hennepin,44.8914,-93.3602,53059,1304.4
Herriman,UT,Utah,Salt Lake,40.4899,-112.017,52860,806.9
Elyria,OH,Ohio,Lorain,41.376,-82.106,52853,1011.7
Grand Island,NE,Nebraska,Hall,40.9218,-98.3586,52755,657.7
Aloha,OR,Oregon,Washington,45.492,-122.8725,52704,2819.8
Lacey,WA,Washington,Thurston,47.0462,-122.7933,52572,1133.9
Bentonville,AR,Arkansas,Benton,36.3547,-94.2305,52565,590.4
Levittown,NY,New York,Nassau,40.7241,-73.5125,52540,2905.6
Methuen Town,MA,Massachusetts,Essex,42.734,-71.1889,52536,878.1
West New York,NJ,New Jersey,Hudson,40.7857,-74.0094,52485,20495.1
Glendora,CA,California,Los Angeles,34.1449,-117.8467,52458,1011.0
Smyrna,TN,Tennessee,Rutherford,35.9687,-86.5264,52401,590.8
Florissant,MO,Missouri,St. Louis,38.7996,-90.3269,52382,1575.7
Delano,CA,California,Kern,35.7662,-119.2635,52206,1385.8
Kannapolis,NC,North Carolina,Cabarrus,35.4764,-80.6408,52173,574.1
Hoffman Estates,IL,Illinois,Cook,42.064,-88.1468,52153,925.0
Beaumont,CA,California,Riverside,33.9076,-116.9766,52081,614.8
Placentia,CA,California,Orange,33.8807,-117.8553,51951,3039.4
Aliso Viejo,CA,California,Orange,33.5792,-117.7289,51943,2808.9
Wheaton,MD,Maryland,Montgomery,39.0492,-77.0573,51836,2865.4
Cathedral City,CA,California,Riverside,33.8362,-116.4642,51836,940.8
Rosemead,CA,California,Los Angeles,34.0689,-118.0823,51698,4028.1
Burien,WA,Washington,King,47.4762,-122.3394,51646,1984.1
Bozeman,MT,Montana,Gallatin,45.6833,-111.0558,51574,897.1
Florin,CA,California,Sacramento,38.4832,-121.4043,51568,2164.1
Twin Falls,ID,Idaho,Twin Falls,42.5645,-114.4613,51223,986.8
Enid,OK,Oklahoma,Garfield,36.4063,-97.87,51129,261.7
Country Club,FL,Florida,Miami-Dade,25.9407,-80.3102,51105,4661.4
Dunwoody,GA,Georgia,DeKalb,33.9418,-84.3122,51103,1466.2
Levittown,PA,Pennsylvania,Bucks,40.1533,-74.8531,51100,1871.2
Palm Desert,CA,California,Riverside,33.7378,-116.3695,51081,764.5
Covina,CA,California,Los Angeles,34.0903,-117.8818,51061,2622.4
Cuyahoga Falls,OH,Ohio,Summit,41.1641,-81.5207,50906,736.3
Lakewood,OH,Ohio,Cuyahoga,41.4822,-81.8008,50841,3483.2
Marana,AZ,Arizona,Pima,32.4355,-111.1558,50834,150.4
Mishawaka,IN,Indiana,St. Joseph,41.6742,-86.1666,50823,1071.7
Columbus,IN,Indiana,Bartholomew,39.2093,-85.9183,50718,663.4
Troy,NY,New York,Rensselaer,42.7354,-73.6751,50717,1836.0
North Bethesda,MD,Maryland,Montgomery,39.0393,-77.1191,50695,2163.6
Milford city ,CT,Connecticut,New Haven,41.2255,-73.0625,50694,932.5
Collierville,TN,Tennessee,Shelby,35.047,-89.6987,50669,537.1
Grapevine,TX,Texas,Tarrant,32.9343,-97.0742,50548,650.6
Summerville,SC,South Carolina,Dorchester,33.0016,-80.1799,50318,956.8
Cypress,CA,California,Orange,33.8171,-118.0386,50279,2868.8
Downers Grove,IL,Illinois,DuPage,41.7949,-88.0172,50209,1298.6
Murray,UT,Utah,Salt Lake,40.6498,-111.8874,50183,1534.4
Catalina Foothills,AZ,Arizona,Pima,32.3046,-110.8838,50096,467.2
East Honolulu,HI,Hawaii,Honolulu,21.2975,-157.7211,50076,791.0
Draper,UT,Utah,Salt Lake,40.4957,-111.8605,49978,626.5
Chesterfield,MO,Missouri,St. Louis,38.6589,-90.5803,49675,576.5
Cerritos,CA,California,Los Angeles,33.8678,-118.0686,49630,2185.0
Bedford,TX,Texas,Tarrant,32.8464,-97.135,49576,1891.8
St. Louis Park,MN,Minnesota,Hennepin,44.9488,-93.3649,49539,1775.5
Azusa,CA,California,Los Angeles,34.1386,-117.9124,49457,1981.6
Euclid,OH,Ohio,Cuyahoga,41.5903,-81.5188,49382,1698.1
McLean,VA,Virginia,Fairfax,38.9436,-77.1943,49310,756.2
Coral Gables,FL,Florida,Miami-Dade,25.7037,-80.2715,49269,1491.5
Lincoln,CA,California,Placer,38.8774,-121.2937,49203,769.2
Jeffersonville,IN,Indiana,Clark,38.3376,-85.7026,49178,543.1
Ceres,CA,California,Stanislaus,37.5952,-120.962,49132,1965.5
Biloxi,MS,Mississippi,Harrison,30.4426,-88.9514,49061,414.0
Lawrence,IN,Indiana,Marion,39.8674,-85.9904,49048,939.4
Poway,CA,California,San Diego,32.9871,-117.0201,49005,491.8
Cedar Hill,TX,Texas,Dallas,32.581,-96.9591,48968,521.5
Portage,MI,Michigan,Kalamazoo,42.2,-85.5906,48767,588.5
Rowland Heights,CA,California,Los Angeles,33.9716,-117.8912,48765,1473.8
Niagara Falls,NY,New York,Niagara,43.0921,-79.0147,48763,1315.1
Dublin,OH,Ohio,Franklin,40.1112,-83.1454,48613,748.1
El Dorado Hills,CA,California,El Dorado,38.675,-121.049,48612,375.3
Mooresville,NC,North Carolina,Iredell,35.5847,-80.8266,48431,586.9
North Highlands,CA,California,Sacramento,38.6713,-121.3721,48424,2132.2
Antelope,CA,California,Sacramento,38.7153,-121.361,48421,2737.4
Spring Hill,TN,Tennessee,Maury,35.7437,-86.9116,48403,597.1
Everett,MA,Massachusetts,Middlesex,42.4064,-71.0545,48368,5229.7
University,FL,Florida,Hillsborough,28.0771,-82.4335,48367,2948.4
Roswell,NM,New Mexico,Chaves,33.373,-104.5294,48347,620.4
Leesburg,VA,Virginia,Loudoun,39.1057,-77.5544,48223,1648.5
Rancho Santa Margarita,CA,California,Orange,33.6318,-117.5988,48190,1441.9
Tuckahoe,VA,Virginia,Henrico,37.5878,-77.5858,48187,916.4
Titusville,FL,Florida,Brevard,28.5727,-80.8193,48158,611.8
Glenview,IL,Illinois,Cook,42.0825,-87.8214,48150,1302.1
Wauwatosa,WI,Wisconsin,Milwaukee,43.0616,-88.0347,48072,1405.3
Stillwater,OK,Oklahoma,Payne,36.1317,-97.0742,48055,650.4
Minot,ND,North Dakota,Ward,48.2375,-101.278,48005,667.9
La Mirada,CA,California,Los Angeles,33.9025,-118.0093,47957,2382.3
Wilson,NC,North Carolina,Wilson,35.7311,-77.9284,47914,610.5
Newark,CA,California,Alameda,37.5201,-122.0307,47815,1335.6
Roseville,MI,Michigan,Macomb,42.5074,-82.9369,47692,1851.2
East Lansing,MI,Michigan,Ingham,42.748,-84.4836,47427,1392.4
Mentor,OH,Ohio,Lake,41.6893,-81.3362,47369,653.9
Bothell,WA,Washington,King,47.7735,-122.2044,47355,1313.5
San Luis Obispo,CA,California,San Luis Obispo,35.2669,-120.669,47257,1375.6
Burleson,TX,Texas,Johnson,32.517,-97.3344,47230,643.4
East Providence,RI,Rhode Island,Providence,41.8065,-71.3565,47171,1378.9
Middletown,CT,Connecticut,Middlesex,41.5476,-72.6549,47164,436.8
Brea,CA,California,Orange,33.9254,-117.8655,46912,1402.0
Salina,KS,Kansas,Saline,38.8136,-97.6143,46896,699.7
Potomac,MD,Maryland,Montgomery,39.0141,-77.1943,46891,710.3
Farmington,NM,New Mexico,San Juan,36.7555,-108.1823,46696,503.8
Sicklerville,NJ,New Jersey,Camden,39.7452,-74.9934,46626,1000.2
Ocoee,FL,Florida,Orange,28.5796,-81.5332,46562,1173.2
Hilo,HI,Hawaii,Hawaii,19.6883,-155.0863,46559,325.8
Oro Valley,AZ,Arizona,Pima,32.4208,-110.9767,46515,501.6
Fort Pierce,FL,Florida,St. Lucie,27.4255,-80.3431,46409,744.2
Wake Forest,NC,North Carolina,Wake,35.9632,-78.514,46387,942.8
Beavercreek,OH,Ohio,Greene,39.731,-84.0624,46320,687.4
Strongsville,OH,Ohio,Cuyahoga,41.3128,-81.8313,46187,700.6
Rockwall,TX,Texas,Rockwall,32.9169,-96.4374,46150,590.5
Attleboro,MA,Massachusetts,Bristol,41.9311,-71.295,46146,649.1
Winter Garden,FL,Florida,Orange,28.5421,-81.5967,45978,1061.5
Pearl City,HI,Hawaii,Honolulu,21.4031,-157.9566,45941,1911.9
Haltom City,TX,Texas,Tarrant,32.8176,-97.2707,45777,1385.4
Altamonte Springs,FL,Florida,Seminole,28.6615,-81.3953,45732,1865.7
Hackensack,NJ,New Jersey,Bergen,40.8891,-74.0462,45723,4077.8
Westfield,IN,Indiana,Hamilton,40.0341,-86.1529,45695,504.5
Elmhurst,IL,Illinois,DuPage,41.8973,-87.9432,45661,1759.7
Bountiful,UT,Utah,Davis,40.8721,-111.8647,45496,1287.4
Littleton,CO,Colorado,Arapahoe,39.5915,-105.0188,45465,1413.7
Huntsville,TX,Texas,Walker,30.7009,-95.5567,45446,377.7
Cleveland Heights,OH,Ohio,Cuyahoga,41.5113,-81.5636,45267,2114.8
Morgan Hill,CA,California,Santa Clara,37.1325,-121.6419,45267,1336.6
Keller,TX,Texas,Tarrant,32.9335,-97.2256,45190,986.3
Kyle,TX,Texas,Hays,29.9932,-97.8852,45147,569.4
Little Elm,TX,Texas,Denton,33.1858,-96.9295,45124,1064.2
Whitney,NV,Nevada,Clark,36.1008,-115.0379,45105,2522.2
Prescott,AZ,Arizona,Yavapai,34.5849,-112.4473,45063,373.2
Sayreville,NJ,New Jersey,Middlesex,40.4656,-74.3237,45062,1079.1
Urbandale,IA,Iowa,Polk,41.639,-93.7812,45037,752.0
Ashburn,VA,Virginia,Loudoun,39.0277,-77.4714,44950,1113.0
Sierra Vista,AZ,Arizona,Cochise,31.563,-110.3153,44944,111.0
Cutler Bay,FL,Florida,Miami-Dade,25.5765,-80.3356,44865,1715.5
Palm Springs,CA,California,Riverside,33.8017,-116.5382,44799,197.6
Riverton,UT,Utah,Salt Lake,40.5176,-111.9636,44773,1343.8
Lake Ridge,VA,Virginia,Prince William,38.6847,-77.3066,44697,1910.5
North Lauderdale,FL,Florida,Broward,26.2113,-80.2209,44579,3691.5
Fairfield,OH,Ohio,Butler,39.3301,-84.5409,44550,789.9
West Lafayette,IN,Indiana,Tippecanoe,40.4432,-86.9238,44515,1411.1
Goose Creek,SC,South Carolina,Berkeley,32.9927,-80.0055,44502,392.4
Salem,MA,Massachusetts,Essex,42.5129,-70.9021,44452,2018.1
Los Banos,CA,California,Merced,37.063,-120.8406,44421,1523.4
Rohnert Park,CA,California,Sonoma,38.3479,-122.6965,44420,2255.4
Fond du Lac,WI,Wisconsin,Fond du Lac,43.7718,-88.4397,44412,862.4
Brentwood,TN,Tennessee,Williamson,35.9918,-86.7758,44354,401.0
Freeport,NY,New York,Nassau,40.6515,-73.585,44328,3625.8
Lombard,IL,Illinois,DuPage,41.8741,-88.0157,44311,1652.9
Plainfield,IL,Illinois,Will,41.6207,-88.2253,44296,700.9
Lompoc,CA,California,Santa Barbara,34.6618,-120.4714,44232,1420.2
Trujillo Alto,PR,Puerto Rico,Trujillo Alto,18.3599,-66.0096,44203,2173.9
Burke,VA,Virginia,Fairfax,38.7773,-77.2633,44191,1977.1
Moorhead,MN,Minnesota,Clay,46.8673,-96.7461,44129,752.8
Oakland Park,FL,Florida,Broward,26.178,-80.1528,44092,2303.6
Wilkes-Barre,PA,Pennsylvania,Luzerne,41.2469,-75.876,44086,2300.6
Campbell,CA,California,Santa Clara,37.2802,-121.9539,43954,2723.4
Mankato,MN,Minnesota,Blue Earth,44.1715,-93.9772,43938,848.3
Pittsfield,MA,Massachusetts,Berkshire,42.4517,-73.2605,43890,405.6
San Bruno,CA,California,San Mateo,37.6256,-122.4313,43775,3141.9
Danville,CA,California,Contra Costa,37.8121,-121.9698,43673,959.7
Concord,NH,New Hampshire,Merrimack,43.2305,-71.5595,43552,262.6
The Colony,TX,Texas,Denton,33.0925,-96.8976,43489,1206.9
Odenton,MD,Maryland,Anne Arundel,39.0661,-76.6938,43488,1105.0
Greenacres,FL,Florida,Palm Beach,26.627,-80.1371,43482,2654.0
West Babylon,NY,New York,Suffolk,40.7129,-73.3585,43397,1932.3
Shakopee,MN,Minnesota,Scott,44.7745,-93.4772,43396,562.0
Linden,NJ,New Jersey,Union,40.6251,-74.2383,43387,1529.3
Altadena,CA,California,Los Angeles,34.1927,-118.1346,43384,1963.0
North Miami Beach,FL,Florida,Miami-Dade,25.9302,-80.1659,43357,3413.3
Gallatin,TN,Tennessee,Sumner,36.3782,-86.4698,43306,470.8
Wentzville,MO,Missouri,St. Charles,38.8153,-90.8669,43213,754.1
Hicksville,NY,New York,Nassau,40.7637,-73.5245,43107,2414.1
Jefferson City,MO,Missouri,Cole,38.5676,-92.1759,43076,456.9
Buffalo Grove,IL,Illinois,Lake,42.1675,-87.9615,43062,1647.4
Woonsocket,RI,Rhode Island,Providence,42.001,-71.4993,43044,2074.3
Oakley,CA,California,Contra Costa,37.9929,-121.6952,42996,1013.7
Eagle Mountain,UT,Utah,Utah,40.3137,-112.0114,42905,271.3
Catonsville,MD,Maryland,Baltimore,39.2646,-76.7424,42789,1150.2
Woodbridge,VA,Virginia,Prince William,38.6409,-77.258,42734,1819.6
Ormond Beach,FL,Florida,Volusia,29.2985,-81.1014,42707,480.0
Moline,IL,Illinois,Rock Island,41.4821,-90.492,42660,949.8
Huber Heights,OH,Ohio,Montgomery,39.8595,-84.113,42650,703.7
Edmonds,WA,Washington,Snohomish,47.8115,-122.3533,42622,1833.7
Manassas,VA,Virginia,Manassas,38.7479,-77.4838,42596,1609.8
Danville,VA,Virginia,Danville,36.5831,-79.4088,42556,366.9
Pahrump,NV,Nevada,Nye,36.2235,-115.9974,42471,45.1
Belleville,IL,Illinois,St. Clair,38.5164,-89.99,42463,686.0
Beverly,MA,Massachusetts,Essex,42.5681,-70.8627,42448,1076.2
Midland,MI,Michigan,Midland,43.6241,-84.2319,42425,470.9
Coppell,TX,Texas,Dallas,32.9639,-96.9903,42420,1111.2
Channelview,TX,Texas,Harris,29.7914,-95.1144,42394,1162.3
Puyallup,WA,Washington,Pierce,47.1793,-122.2902,42366,1138.1
Rancho Palos Verdes,CA,California,Los Angeles,33.7554,-118.3634,42316,1193.2
Coachella,CA,California,Riverside,33.6905,-116.143,42123,586.1
Linton Hall,VA,Virginia,Prince William,38.7551,-77.575,42089,1256.7
Peachtree Corners,GA,Georgia,Gwinnett,33.967,-84.232,42065,1043.3
Woodlawn,MD,Maryland,Baltimore,39.3054,-76.7489,42053,1680.0
Pine Bluff,AR,Arkansas,Jefferson,34.2116,-92.0173,41964,369.9
Spanish Fork,UT,Utah,Utah,40.1101,-111.6405,41953,951.5
Annandale,VA,Virginia,Fairfax,38.8324,-77.196,41869,2078.0
Fitchburg,MA,Massachusetts,Worcester,42.5912,-71.8156,41796,563.1
Kearny,NJ,New Jersey,Hudson,40.7528,-74.1202,41790,1798.2
Maplewood,MN,Minnesota,Ramsey,44.9842,-93.0247,41673,921.7
Mableton,GA,Georgia,Cobb,33.8133,-84.5655,41632,777.7
Schertz,TX,Texas,Bexar,29.565,-98.2535,41607,510.9
Newnan,GA,Georgia,Coweta,33.3767,-84.7761,41598,797.5
Clermont,FL,Florida,Lake,28.5325,-81.7208,41562,785.6
North Fort Myers,FL,Florida,Lee,26.7244,-81.8485,41551,331.0
Marlborough,MA,Massachusetts,Middlesex,42.3494,-71.5468,41505,734.0
Vineyard,CA,California,Sacramento,38.474,-121.324,41505,819.6
Coram,NY,New York,Suffolk,40.8812,-73.0059,41431,1134.6
Bartlett,IL,Illinois,DuPage,41.9804,-88.2071,41126,1004.0
Hollister,CA,California,San Benito,36.8555,-121.3986,41077,1944.5
Bullhead City,AZ,Arizona,Mohave,35.1205,-114.5461,41064,265.4
Lancaster,TX,Texas,Dallas,32.5922,-96.7739,41057,458.5
Grove City,OH,Ohio,Franklin,39.8654,-83.069,41025,907.0
Marion,IA,Iowa,Linn,42.0451,-91.585,41023,865.5
Brookfield,WI,Wisconsin,Waukesha,43.064,-88.1231,41020,546.1
Delaware,OH,Ohio,Delaware,40.2851,-83.0741,41004,808.8
Hallandale Beach,FL,Florida,Broward,25.9854,-80.1423,41004,3646.6
Woburn,MA,Massachusetts,Middlesex,42.4869,-71.1543,40967,1230.0
Columbia,TN,Tennessee,Maury,35.6238,-87.0484,40957,459.4
Germantown,TN,Tennessee,Shelby,35.0829,-89.7824,40955,757.2
Shelton,CT,Connecticut,Fairfield,41.306,-73.1383,40944,518.8
Covington,KY,Kentucky,Kenton,39.0334,-84.5166,40930,1183.9
Westfield,MA,Massachusetts,Hampden,42.1382,-72.7561,40922,344.7
Friendswood,TX,Texas,Galveston,29.511,-95.1981,40780,742.0
The Acreage,FL,Florida,Palm Beach,26.774,-80.2779,40771,449.1
Essex,MD,Maryland,Baltimore,39.3021,-76.4449,40710,1639.0
Culver City,CA,California,Los Angeles,34.0058,-118.3968,40640,2939.2
Annapolis,MD,Maryland,Anne Arundel,38.9706,-76.5047,40581,2106.8
Duncanville,TX,Texas,Dallas,32.646,-96.9127,40575,1347.5
Cedar Falls,IA,Iowa,Black Hawk,42.5195,-92.4536,40500,534.6
Milton,GA,Georgia,Fulton,34.1353,-84.3139,40487,393.6
Weslaco,TX,Texas,Hidalgo,26.1599,-97.9877,40393,968.9
Lake Oswego,OR,Oregon,Clackamas,45.4129,-122.7004,40390,1409.3
Lancaster,OH,Ohio,Fairfield,39.7248,-82.6049,40360,823.2
Findlay,OH,Ohio,Hancock,41.0469,-83.6379,40323,807.8
Valley Stream,NY,New York,Nassau,40.6647,-73.7043,40304,4162.0
New Berlin,WI,Wisconsin,Waukesha,42.9726,-88.1291,40289,421.8
Hutchinson,KS,Kansas,Reno,38.0671,-97.9081,40202,638.8
Holly Springs,NC,North Carolina,Wake,35.6526,-78.8399,40198,814.6
French Valley,CA,California,Riverside,33.5999,-117.1069,40188,1386.9
Security-Widefield,CO,Colorado,El Paso,38.7489,-104.7142,40158,1157.4
Hurst,TX,Texas,Tarrant,32.8353,-97.1809,40114,1502.8
Romeoville,IL,Illinois,Will,41.6318,-88.0997,40099,800.2
Crystal Lake,IL,Illinois,McHenry,42.2333,-88.3351,40082,810.0
Chelsea,MA,Massachusetts,Suffolk,42.3959,-71.0325,40025,6939.7
Waipahu,HI,Hawaii,Honolulu,21.3859,-158.0101,39927,5518.4
Clinton,MD,Maryland,Prince George's,38.7499,-76.9063,39925,582.9
Meadow Woods,FL,Florida,Orange,28.3698,-81.3467,39904,1362.6
Carol Stream,IL,Illinois,DuPage,41.9181,-88.1307,39895,1670.0
Brighton,CO,Colorado,Adams,39.9716,-104.7963,39895,695.9
Bell Gardens,CA,California,Los Angeles,33.9663,-118.155,39870,6558.7
Waxahachie,TX,Texas,Ellis,32.4035,-96.8446,39815,286.5
Reynoldsburg,OH,Ohio,Franklin,39.9588,-82.7943,39803,1295.7
Lincoln Park,MI,Michigan,Wayne,42.2432,-83.1811,39741,2416.3
Streamwood,IL,Illinois,Cook,42.0209,-88.1779,39736,1976.3
Aventura,FL,Florida,Miami-Dade,25.9566,-80.1371,39734,5416.6
Fort Lee,NJ,New Jersey,Bergen,40.8509,-73.9713,39701,5803.5
Quincy,IL,Illinois,Adams,39.9336,-91.3799,39687,982.4
San Gabriel,CA,California,Los Angeles,34.0949,-118.099,39673,3737.1
Valrico,FL,Florida,Hillsborough,27.9193,-82.2293,39632,1125.6
Indian Trail,NC,North Carolina,Union,35.0699,-80.6452,39603,683.8
Park Ridge,IL,Illinois,Cook,42.0125,-87.8436,39562,2039.1
Hobbs,NM,New Mexico,Lea,32.7281,-103.16,39476,562.6
Cape Girardeau,MO,Missouri,Cape Girardeau,37.3109,-89.5597,39415,531.9
Oviedo,FL,Florida,Seminole,28.658,-81.1872,39405,1021.4
Warren,OH,Ohio,Trumbull,41.239,-80.8174,39334,942.8
Plant City,FL,Florida,Hillsborough,28.014,-82.1201,39272,540.1
Urbana,IL,Illinois,Champaign,40.1107,-88.1973,39189,1385.8
Olive Branch,MS,Mississippi,DeSoto,34.961,-89.8469,39136,397.0
Keizer,OR,Oregon,Marion,45.0028,-123.0243,39119,2117.6
Severna Park,MD,Maryland,Anne Arundel,39.087,-76.5687,39108,904.5
Wheeling,IL,Illinois,Cook,42.1308,-87.924,39104,1722.3
Roy,UT,Utah,Weber,41.1714,-112.0485,39076,1862.6
Issaquah,WA,Washington,King,47.5439,-122.0471,39057,1232.1
Westerville,OH,Ohio,Franklin,40.1241,-82.921,38960,1238.9
Grants Pass,OR,Oregon,Josephine,42.4333,-123.3317,38902,1271.7
Lynnwood,WA,Washington,Snohomish,47.8284,-122.3033,38812,1889.1
Calexico,CA,California,Imperial,32.6849,-115.4944,38798,1784.6
Mission Bend,TX,Texas,Fort Bend,29.6948,-95.6658,38772,3134.2
Royal Palm Beach,FL,Florida,Palm Beach,26.7038,-80.2241,38697,1348.3
Land O' Lakes,FL,Florida,Pasco,28.2075,-82.4476,38674,788.8
Bettendorf,IA,Iowa,Scott,41.5657,-90.4765,38631,656.4
Pacifica,CA,California,San Mateo,37.6113,-122.4782,38595,1186.4
Cottage Grove,MN,Minnesota,Washington,44.8161,-92.9274,38582,426.0
Clovis,NM,New Mexico,Curry,34.4376,-103.1923,38505,632.5
Vestavia Hills,AL,Alabama,Jefferson,33.4518,-86.7437,38504,664.8
La Presa,CA,California,San Diego,32.711,-117.0027,38492,2627.4
Holyoke,MA,Massachusetts,Hampden,42.2125,-72.6411,38480,732.5
Evans,GA,Georgia,Columbia,33.5619,-82.1351,38452,587.5
La Puente,CA,California,Los Angeles,34.0323,-117.9533,38447,4415.2
Apache Junction,AZ,Arizona,Pinal,33.3985,-111.535,38311,460.9
Menomonee Falls,WI,Wisconsin,Waukesha,43.1487,-88.1227,38219,441.3
Phenix City,AL,Alabama,Russell,32.4585,-85.0253,38216,500.3
Stanton,CA,California,Orange,33.8003,-117.9935,38167,4770.9
Post Falls,ID,Idaho,Kootenai,47.7213,-116.9384,38162,834.8
La Vergne,TN,Tennessee,Rutherford,36.02,-86.5586,38127,555.5
Parkland,WA,Washington,Pierce,47.1417,-122.4376,38092,1695.1
East Meadow,NY,New York,Nassau,40.7197,-73.5604,38078,2327.3
Mount Juliet,TN,Tennessee,Wilson,36.199,-86.5115,38059,542.1
Hot Springs,AR,Arkansas,Garland,34.4892,-93.0501,38050,398.9
Winter Springs,FL,Florida,Seminole,28.6889,-81.2703,38021,957.8
Monrovia,CA,California,Los Angeles,34.165,-117.9921,37999,1066.0
Prattville,AL,Alabama,Autauga,32.4597,-86.4573,37977,399.1
Carpentersville,IL,Illinois,Kane,42.1227,-88.2896,37940,1842.4
West Fargo,ND,North Dakota,Cass,46.8573,-96.9057,37913,869.9
Northglenn,CO,Colorado,Adams,39.9108,-104.9783,37899,2056.3
East Point,GA,Georgia,Fulton,33.6696,-84.4701,37895,920.8
Tupelo,MS,Mississippi,Lee,34.2692,-88.7318,37872,229.4
Rosenberg,TX,Texas,Fort Bend,29.5456,-95.8223,37871,391.9
Montclair,CA,California,San Bernardino,34.0715,-117.6981,37871,2795.2
Peachtree City,GA,Georgia,Fayette,33.3942,-84.571,37867,550.6
La Quinta,CA,California,Riverside,33.6536,-116.2785,37846,456.1
Mechanicsville,VA,Virginia,Hanover,37.6263,-77.3561,37767,506.1
Sun City,AZ,Arizona,Maricopa,33.6165,-112.2819,37693,1041.2
Richmond West,FL,Florida,Miami-Dade,25.6105,-80.4297,37626,3435.8
Greenfield,WI,Wisconsin,Milwaukee,42.9619,-88.0052,37623,1242.8
Owasso,OK,Oklahoma,Tulsa,36.2878,-95.8311,37559,826.1
Hanover Park,IL,Illinois,DuPage,41.9818,-88.1446,37545,2273.3
Portage,IN,Indiana,Porter,41.5856,-87.1797,37540,551.9
Rock Island,IL,Illinois,Rock Island,41.4699,-90.5827,37519,861.7
Lebanon,TN,Tennessee,Wilson,36.204,-86.3481,37471,338.4
Foothill Farms,CA,California,Sacramento,38.6867,-121.3475,37432,3282.5
New Albany,IN,Indiana,Floyd,38.309,-85.8234,37350,918.6
Martinez,CA,California,Contra Costa,37.9985,-122.1161,37308,1172.3
Riviera Beach,FL,Florida,Palm Beach,26.7813,-80.0741,37301,1633.5
Adelanto,CA,California,San Bernardino,34.5814,-117.4397,37229,250.1
Pleasant Grove,UT,Utah,Utah,40.3716,-111.7412,37228,1614.9
Leavenworth,KS,Kansas,Leavenworth,39.3239,-94.924,37216,572.9
Muskogee,OK,Oklahoma,Muskogee,35.7432,-95.3567,37214,335.7
Oregon City,OR,Oregon,Clackamas,45.3418,-122.5924,37160,1424.0
Bartlesville,OK,Oklahoma,Washington,36.7365,-95.9456,37074,625.3
Saratoga Springs,UT,Utah,Utah,40.345,-111.9154,36977,523.1
Kendall West,FL,Florida,Miami-Dade,25.7065,-80.4388,36964,5335.8
Richfield,MN,Minnesota,Hennepin,44.8763,-93.2829,36899,2065.2
Kearns,UT,Utah,Salt Lake,40.6519,-112.0095,36842,3039.8
Tucker,GA,Georgia,DeKalb,33.8436,-84.2024,36764,693.3
Elmont,NY,New York,Nassau,40.7033,-73.7078,36741,4104.3
Franklin,WI,Wisconsin,Milwaukee,42.8854,-88.0104,36685,402.2
Oakton,VA,Virginia,Fairfax,38.8887,-77.3016,36675,1442.1
Lewiston,ME,Maine,Androscoggin,44.0915,-70.1681,36615,408.9
South Valley,NM,New Mexico,Bernalillo,35.0093,-106.6819,36583,520.9
Beloit,WI,Wisconsin,Rock,42.523,-89.0184,36567,819.9
Upper Arlington,OH,Ohio,Franklin,40.0272,-83.0704,36566,1394.4
DeLand,FL,Florida,Volusia,29.0225,-81.2875,36528,673.3
Temple City,CA,California,Los Angeles,34.1022,-118.0579,36526,3442.3
Wildomar,CA,California,Riverside,33.6173,-117.2582,36511,587.9
Chillum,MD,Maryland,Prince George's,38.9666,-76.9791,36428,3919.4
Princeton,FL,Florida,Miami-Dade,25.5396,-80.3971,36381,1851.2
Claremont,CA,California,Los Angeles,34.1259,-117.7153,36312,1031.1
Winchester,NV,Nevada,Clark,36.1365,-115.137,36307,2826.8
Central Islip,NY,New York,Suffolk,40.7836,-73.1945,36292,1812.7
Georgetown,KY,Kentucky,Scott,38.2247,-84.5487,36281,781.2
Oak Creek,WI,Wisconsin,Milwaukee,42.8803,-87.9009,36266,493.0
Commack,NY,New York,Suffolk,40.8435,-73.2833,36252,1163.3
South Miami Heights,FL,Florida,Miami-Dade,25.5886,-80.3862,36239,2807.2
Moorpark,CA,California,Ventura,34.2861,-118.8768,36201,1146.1
Merrillville,IN,Indiana,Lake,41.4728,-87.3196,36196,405.1
Estero,FL,Florida,Lee,26.4276,-81.7951,36187,530.0
Egypt Lake-Leto,FL,Florida,Hillsborough,28.0177,-82.5062,36157,2468.7
Roseville,MN,Minnesota,Ramsey,45.0155,-93.1545,36119,1071.7
Dunedin,FL,Florida,Pinellas,28.0329,-82.7862,36110,1353.1
Farmers Branch,TX,Texas,Dallas,32.9272,-96.8804,36091,1386.3
Calumet City,IL,Illinois,Cook,41.6134,-87.5505,36065,1943.4
Marion,OH,Ohio,Marion,40.5973,-83.1227,36053,1072.5
Addison,IL,Illinois,DuPage,41.9313,-88.0085,35999,1442.2
Buenaventura Lakes,FL,Florida,Osceola,28.3349,-81.3539,35922,2431.2
Westmont,CA,California,Los Angeles,33.9417,-118.3018,35913,7355.3
Lauderdale Lakes,FL,Florida,Broward,26.1682,-80.2017,35898,3782.9
Richmond,IN,Indiana,Wayne,39.8318,-84.8905,35854,570.5
Carrollwood,FL,Florida,Hillsborough,28.0577,-82.5148,35846,1479.9
Olney,MD,Maryland,Montgomery,39.1465,-77.0715,35815,843.5
Orangevale,CA,California,Sacramento,38.6881,-121.2209,35729,1181.1
West Hollywood,CA,California,Los Angeles,34.0883,-118.3719,35678,7263.0
Randallstown,MD,Maryland,Baltimore,39.3723,-76.8024,35641,1347.0
Gahanna,OH,Ohio,Franklin,40.0251,-82.8637,35626,1100.7
Meridian,MS,Mississippi,Lauderdale,32.3846,-88.6896,35625,267.6
Norristown,PA,Pennsylvania,Montgomery,40.1225,-75.3398,35607,3777.5
Manhattan Beach,CA,California,Los Angeles,33.8894,-118.3967,35585,3441.2
La Porte,TX,Texas,Harris,29.6689,-95.0484,35566,733.5
Inver Grove Heights,MN,Minnesota,Dakota,44.8247,-93.0596,35539,492.0
Hilliard,OH,Ohio,Franklin,40.0353,-83.1578,35530,1001.6
Sun Prairie,WI,Wisconsin,Dane,43.1825,-89.2362,35528,1015.5
Copperas Cove,TX,Texas,Coryell,31.1192,-97.914,35452,705.9
Torrington,CT,Connecticut,Litchfield,41.8349,-73.1282,35447,332.7
El Mirage,AZ,Arizona,Maricopa,33.5905,-112.3271,35410,1392.7
Wildwood,MO,Missouri,St. Louis,38.58,-90.6698,35384,205.5
San Juan,TX,Texas,Hidalgo,26.1903,-98.152,35384,1217.3
Oakville,MO,Missouri,St. Louis,38.4479,-90.3199,35357,878.3
San Juan Capistrano,CA,California,Orange,33.5008,-117.6544,35319,962.6
Midvale,UT,Utah,Salt Lake,40.6148,-111.8927,35313,2200.6
San Luis,AZ,Arizona,Yuma,32.4911,-114.7089,35289,384.4
Brunswick,OH,Ohio,Medina,41.2465,-81.8198,35272,1037.4
Salisbury,NC,North Carolina,Rowan,35.6658,-80.4905,35258,600.1
Tooele,UT,Utah,Tooele,40.5393,-112.3082,35223,564.6
Watertown Town,MA,Massachusetts,Middlesex,42.37,-71.1774,35171,3454.0
Owings Mills,MD,Maryland,Baltimore,39.4115,-76.7913,35170,1405.9
Greer,SC,South Carolina,Greenville,34.933,-82.2313,35151,528.5
Lake Stevens,WA,Washington,Snohomish,48.0024,-122.0953,35135,1409.8
Northbrook,IL,Illinois,Cook,42.1292,-87.8352,35108,968.6
College Park,MD,Maryland,Prince George's,38.996,-76.9337,34961,2217.0
University City,MO,Missouri,St. Louis,38.6657,-90.3315,34953,2256.0
North Ridgeville,OH,Ohio,Lorain,41.3852,-82.0195,34883,559.3
Del Rio,TX,Texas,Val Verde,29.3708,-100.8801,34831,676.8
Fair Lawn,NJ,New Jersey,Bergen,40.9359,-74.1177,34820,2480.2
Long Beach,NY,New York,Nassau,40.5887,-73.666,34820,5828.1
Goshen,IN,Indiana,Elkhart,41.5743,-85.8309,34792,759.8
San Dimas,CA,California,Los Angeles,34.1082,-117.809,34775,868.5
Springville,UT,Utah,Utah,40.1638,-111.6205,34750,892.8
Benton,AR,Arkansas,Saline,34.5776,-92.5713,34746,613.5
Hinesville,GA,Georgia,Liberty,31.8248,-81.6137,34733,702.3
Socorro,TX,Texas,El Paso,31.6383,-106.2601,34687,603.9
Spanaway,WA,Washington,Pierce,47.0979,-122.4233,34670,1491.3
Richmond,KY,Kentucky,Madison,37.7307,-84.2925,34662,679.1
Pleasant Hill,CA,California,Contra Costa,37.9539,-122.0759,34649,1904.7
University Place,WA,Washington,Pierce,47.2147,-122.5461,34565,1558.4
Stow,OH,Ohio,Summit,41.1765,-81.4344,34556,785.7
Kaneohe,HI,Hawaii,Honolulu,21.4062,-157.7904,34509,1979.3
Montgomery Village,MD,Maryland,Montgomery,39.1788,-77.1954,34489,3422.7
Fruit Cove,FL,Florida,St. Johns,30.0972,-81.6175,34469,791.6
Monroe,NC,North Carolina,Union,35.0063,-80.5596,34464,441.3
Fair Oaks,VA,Virginia,Fairfax,38.8653,-77.3586,34437,2665.6
Douglasville,GA,Georgia,Douglas,33.7384,-84.7054,34410,556.3
Fairborn,OH,Ohio,Greene,39.801,-84.0094,34398,886.6
Butte,MT,Montana,Silver Bow,45.902,-112.6571,34368,18.5
Dakota Ridge,CO,Colorado,Jefferson,39.6192,-105.1344,34361,1425.0
Oildale,CA,California,Kern,35.4293,-119.0306,34350,1734.0
Mason,OH,Ohio,Warren,39.3571,-84.3023,34337,673.4
Oswego,IL,Illinois,Kendall,41.6834,-88.3372,34324,919.9
Gadsden,AL,Alabama,Etowah,34.0086,-86.0157,34317,363.3
Plainfield,IN,Indiana,Hendricks,39.6954,-86.3716,34311,508.3
Manitowoc,WI,Wisconsin,Manitowoc,44.0991,-87.6812,34267,707.0
Lufkin,TX,Texas,Angelina,31.3217,-94.7277,34264,398.8
Cedar City,UT,Utah,Iron,37.6834,-113.0956,34246,358.4
Deer Park,TX,Texas,Harris,29.6898,-95.1151,34240,1234.8
McMinnville,OR,Oregon,Yamhill,45.211,-123.1918,34224,1257.9
Woodridge,IL,Illinois,DuPage,41.737,-88.0409,34161,1340.7
Eastpointe,MI,Michigan,Macomb,42.4657,-82.9461,34148,2412.1
Prairieville,LA,Louisiana,Ascension,30.3151,-90.9571,34118,583.2
New City,NY,New York,Rockland,41.1542,-73.9912,34118,850.5
Cookeville,TN,Tennessee,Putnam,36.1482,-85.5109,34068,366.2
Huntington Station,NY,New York,Suffolk,40.8446,-73.405,34050,2370.1
Westlake,OH,Ohio,Cuyahoga,41.4524,-81.9294,34049,779.2
Merritt Island,FL,Florida,Brevard,28.3139,-80.6708,34013,772.9
Lewiston,ID,Idaho,Nez Perce,46.3934,-116.9933,33964,732.2
Golden Glades,FL,Florida,Miami-Dade,25.9129,-80.2013,33930,2704.2
Bell,CA,California,Los Angeles,33.9801,-118.1798,33915,5434.4
Midlothian,TX,Texas,Ellis,32.4669,-96.989,33914,191.6
Ken Caryl,CO,Colorado,Jefferson,39.577,-105.1144,33889,1327.8
Cooper City,FL,Florida,Broward,26.0463,-80.2862,33867,1715.5
Woodstock,GA,Georgia,Cherokee,34.1026,-84.5091,33857,993.3
Martinez,GA,Georgia,Columbia,33.5209,-82.0985,33829,929.3
South Riding,VA,Virginia,Loudoun,38.912,-77.5132,33828,1834.8
Valparaiso,IN,Indiana,Porter,41.4783,-87.0506,33820,795.3
Parkland,FL,Florida,Broward,26.3219,-80.2533,33772,1015.3
Walla Walla,WA,Washington,Walla Walla,46.0671,-118.3368,33765,909.7
Leawood,KS,Kansas,Johnson,38.9075,-94.6258,33748,887.0
Graham,WA,Washington,Pierce,47.0322,-122.2827,33727,294.0
Rexburg,ID,Idaho,Madison,43.8226,-111.7919,33684,1115.5
Menlo Park,CA,California,San Mateo,37.4685,-122.1673,33677,1360.9
Cottonwood Heights,UT,Utah,Salt Lake,40.6137,-111.8144,33597,1416.6
Kearney,NE,Nebraska,Buffalo,40.7011,-99.0833,33558,881.8
Pikesville,MD,Maryland,Baltimore,39.3893,-76.702,33549,1027.7
Sahuarita,AZ,Arizona,Pima,31.9323,-110.9654,33524,373.9
Crown Point,IN,Indiana,Lake,41.4143,-87.3457,33518,654.0
Foster City,CA,California,San Mateo,37.5553,-122.2659,33511,3370.0
Timberwood Park,TX,Texas,Bexar,29.6995,-98.4838,33506,473.8
Englewood,CO,Colorado,Arapahoe,39.6468,-104.9942,33500,2050.3
Glendale Heights,IL,Illinois,DuPage,41.9196,-88.0785,33443,2428.0
Bethel Park,PA,Pennsylvania,Allegheny,40.3238,-80.0364,33356,1066.1
Baldwin,NY,New York,Nassau,40.6511,-73.6075,33352,3091.4
Dana Point,CA,California,Orange,33.4733,-117.6967,33327,2010.3
Los Gatos,CA,California,Santa Clara,37.2304,-121.9562,33309,1067.8
Brooklyn Center,MN,Minnesota,Hennepin,45.0681,-93.3162,33298,1483.7
West Little River,FL,Florida,Miami-Dade,25.8571,-80.2367,33284,2718.7
Petersburg,VA,Virginia,Petersburg,37.2043,-77.3913,33229,523.2
Goldsboro,NC,North Carolina,Wayne,35.3778,-77.9717,33214,467.4
Redmond,OR,Oregon,Deschutes,44.2612,-121.181,33160,663.2
Fuquay-Varina,NC,North Carolina,Wake,35.5953,-78.7778,33135,638.0
Alabaster,AL,Alabama,Shelby,33.2198,-86.8225,33133,508.0
Gillette,WY,Wyoming,Campbell,44.2752,-105.4982,33047,541.5
Kennesaw,GA,Georgia,Cobb,34.026,-84.6177,33036,1360.4
Fallbrook,CA,California,San Diego,33.3693,-117.2259,32999,712.3
Pueblo West,CO,Colorado,Pueblo,38.3465,-104.7246,32991,255.2
Pullman,WA,Washington,Whitman,46.7336,-117.168,32968,1200.3
Spring Valley,NY,New York,Rockland,41.1151,-74.0486,32953,6209.4
St. Charles,IL,Illinois,Kane,41.9193,-88.3109,32908,873.9
Beverly Hills,CA,California,Los Angeles,34.0786,-118.4021,32903,2280.2
Spring Valley,CA,California,San Diego,32.7317,-116.9766,32860,1675.8
American Fork,UT,Utah,Utah,40.3783,-111.7953,32822,1087.7
Chester,PA,Pennsylvania,Delaware,39.8456,-75.3718,32819,2704.4
Uniondale,NY,New York,Nassau,40.7176,-73.5947,32791,2205.3
Elk Grove Village,IL,Illinois,Cook,42.0064,-87.9921,32763,1079.8
East Lake,FL,Florida,Pinellas,28.1206,-82.6868,32714,436.5
Redan,GA,Georgia,DeKalb,33.7394,-84.1644,32712,1664.5
Goleta,CA,California,Santa Barbara,34.4361,-119.8594,32677,1580.3
Des Moines,WA,Washington,King,47.3914,-122.3156,32631,1926.0
Sherwood,AR,Arkansas,Pulaski,34.8507,-92.2029,32544,581.2
Kiryas Joel,NY,New York,Orange,41.3411,-74.1667,32498,6843.8
Garfield,NJ,New Jersey,Bergen,40.8791,-74.1085,32481,5801.9
Andover,MN,Minnesota,Anoka,45.2571,-93.3265,32471,376.4
Kaysville,UT,Utah,Davis,41.029,-111.9456,32438,1174.9
Statesboro,GA,Georgia,Bulloch,32.4375,-81.7751,32400,826.9
Pekin,IL,Illinois,Tazewell,40.5678,-89.6251,32398,805.5
Franklin Square,NY,New York,Nassau,40.7002,-73.6775,32381,4228.1
North Olmsted,OH,Ohio,Cuyahoga,41.4149,-81.919,32371,1044.0
Nacogdoches,TX,Texas,Nacogdoches,31.6134,-94.6528,32347,460.3
Canton,GA,Georgia,Cherokee,34.2467,-84.4897,32342,620.6
Wheat Ridge,CO,Colorado,Jefferson,39.7728,-105.1028,32340,1317.7
Harker Heights,TX,Texas,Bell,31.0572,-97.6446,32320,782.1
Rochester,NH,New Hampshire,Strafford,43.299,-70.9787,32317,268.5
Rome,NY,New York,Oneida,43.226,-75.4909,32309,166.2
Juneau,AK,Alaska,Juneau,58.4546,-134.1739,32240,4.6
Kingman,AZ,Arizona,Mohave,35.217,-114.0105,32204,312.9
Massillon,OH,Ohio,Stark,40.7838,-81.5254,32199,661.2
Savage,MN,Minnesota,Scott,44.7545,-93.3632,32092,786.0
Helena,MT,Montana,Lewis and Clark,46.5965,-112.0202,32060,748.8
Lawndale,CA,California,Los Angeles,33.8884,-118.3531,32035,6369.2
Desert Hot Springs,CA,California,Riverside,33.955,-116.5429,31988,373.5
Centereach,NY,New York,Suffolk,40.8681,-73.0821,31979,1347.9
San Pablo,CA,California,Contra Costa,37.9629,-122.3426,31975,4554.7
Windsor,CO,Colorado,Weld,40.469,-104.9198,31972,356.7
O'Fallon,IL,Illinois,St. Clair,38.5974,-89.9148,31963,730.1
Marrero,LA,Louisiana,Jefferson,29.8871,-90.1126,31928,1702.8
West Odessa,TX,Texas,Ector,31.8389,-102.5003,31927,162.3
Bangor,ME,Maine,Penobscot,44.8323,-68.7906,31920,361.0
Ithaca,NY,New York,Tompkins,42.4442,-76.5032,31819,2200.7
Clearfield,UT,Utah,Davis,41.103,-112.0238,31802,1585.6
Springfield,VA,Virginia,Fairfax,38.781,-77.1839,31769,1622.1
Fair Oaks,CA,California,Sacramento,38.6504,-121.2496,31750,1096.3
Holladay,UT,Utah,Salt Lake,40.66,-111.8226,31738,1383.5
Long Branch,NJ,New Jersey,Monmouth,40.2965,-73.9915,31734,2292.3
Syracuse,UT,Utah,Davis,41.0859,-112.0698,31715,1150.4
Dania Beach,FL,Florida,Broward,26.0593,-80.1637,31703,1584.1
Florence,KY,Kentucky,Boone,38.9899,-84.6471,31699,1180.5
Mundelein,IL,Illinois,Lake,42.2693,-88.0102,31596,1271.7
Naugatuck,CT,Connecticut,New Haven,41.489,-73.0518,31586,735.3
Pasadena,MD,Maryland,Anne Arundel,39.1552,-76.5537,31583,761.3
Los Altos,CA,California,Santa Clara,37.3684,-122.0965,31562,1823.0
Carlsbad,NM,New Mexico,Eddy,32.401,-104.2388,31525,358.7
Aiken,SC,South Carolina,Aiken,33.5303,-81.7271,31516,572.4
Duluth,GA,Georgia,Gwinnett,34.0053,-84.1492,31506,1115.9
Laramie,WY,Wyoming,Albany,41.3099,-105.6085,31501,683.8
Cibolo,TX,Texas,Guadalupe,29.5634,-98.2115,31489,557.8
Bay Shore,NY,New York,Suffolk,40.7288,-73.2495,31488,2163.6
La Verne,CA,California,Los Angeles,34.1207,-117.7703,31423,1482.9
Laguna Hills,CA,California,Orange,33.5918,-117.6991,31409,1863.9
Atwater,CA,California,Merced,37.3529,-120.5959,31401,1783.6
Newark,DE,Delaware,New Castle,39.6776,-75.7576,31393,1385.2
Port Chester,NY,New York,Westchester,41.0051,-73.668,31317,4844.2
Maryville,TN,Tennessee,Blount,35.7468,-83.9789,31281,655.7
Shawnee,OK,Oklahoma,Pottawatomie,35.3531,-96.9647,31237,277.6
Lake Magdalene,FL,Florida,Hillsborough,28.0875,-82.4791,31211,1218.0
Sterling,VA,Virginia,Loudoun,39.0052,-77.405,31202,2185.7
Alamogordo,NM,New Mexico,Otero,32.8837,-105.9625,31201,571.0
Saratoga,CA,California,Santa Clara,37.2684,-122.0263,31194,939.1
Oceanside,NY,New York,Nassau,40.6328,-73.6364,31182,2337.8
North Royalton,OH,Ohio,Cuyahoga,41.3138,-81.745,31150,544.6
Burlingame,CA,California,San Mateo,37.5859,-122.3667,31142,2642.9
Lakeside,FL,Florida,Clay,30.1356,-81.7674,31125,891.4
Oak Ridge,TN,Tennessee,Anderson,35.9639,-84.2938,31087,131.9
Nicholasville,KY,Kentucky,Jessamine,37.8906,-84.5668,31066,798.3
New Bern,NC,North Carolina,Craven,35.0955,-77.0723,31058,407.1
LaGrange,GA,Georgia,Troup,33.0274,-85.0384,31053,279.4
West Falls Church,VA,Virginia,Fairfax,38.8648,-77.1878,31023,2418.1
Ballwin,MO,Missouri,St. Louis,38.595,-90.55,30998,1298.3
Cleburne,TX,Texas,Johnson,32.3568,-97.4151,30984,367.8
Niles,IL,Illinois,Cook,42.0278,-87.8099,30971,1927.7
Bel Air North,MD,Maryland,Harford,39.5543,-76.3732,30969,740.9
Westfield,NJ,New Jersey,Union,40.6516,-74.3432,30950,1704.8
Orcutt,CA,California,Santa Barbara,34.8691,-120.4222,30940,1118.5
Cornelius,NC,North Carolina,Mecklenburg,35.4724,-80.8813,30925,910.2
SeaTac,WA,Washington,King,47.4444,-122.2986,30867,1116.5
Garner,NC,North Carolina,Wake,35.6936,-78.6181,30859,707.3
Gurnee,IL,Illinois,Lake,42.3708,-87.9392,30826,872.3
Opelika,AL,Alabama,Lee,32.6612,-85.3769,30810,193.1
Parkville,MD,Maryland,Baltimore,39.3832,-76.5519,30783,2744.7
Hopkinsville,KY,Kentucky,Christian,36.8381,-87.4775,30771,376.7
Southlake,TX,Texas,Tarrant,32.9545,-97.1503,30754,560.3
San Carlos,CA,California,San Mateo,37.4982,-122.2677,30754,2115.1
Santa Paula,CA,California,Ventura,34.3545,-119.0656,30741,2115.3
Princeton,NJ,New Jersey,Mercer,40.3562,-74.6693,30717,670.4
Bowling Green,OH,Ohio,Wood,41.3776,-83.6495,30715,950.3
Milford Mill,MD,Maryland,Baltimore,39.3444,-76.7668,30685,1687.6
Canyon Lake,TX,Texas,Comal,29.8761,-98.2611,30641,71.3
North Chicago,IL,Illinois,Lake,42.3172,-87.8595,30619,1447.1
Middle River,MD,Maryland,Baltimore,39.3436,-76.4253,30606,897.8
Drexel Heights,AZ,Arizona,Pima,32.1453,-111.048,30599,617.5
North Tonawanda,NY,New York,Niagara,43.0457,-78.8659,30592,1160.6
Miami Lakes,FL,Florida,Miami-Dade,25.9125,-80.3214,30582,2117.2
Ferry Pass,FL,Florida,Escambia,30.5205,-87.1899,30526,888.9
San Lorenzo,CA,California,Alameda,37.6733,-122.1332,30420,3818.0
Granger,IN,Indiana,St. Joseph,41.7374,-86.1348,30394,477.1
Morristown,TN,Tennessee,Hamblen,36.2043,-83.3001,30387,417.7
Weatherford,TX,Texas,Parker,32.7536,-97.7723,30385,454.0
Northport,AL,Alabama,Tuscaloosa,33.2586,-87.5993,30334,573.4
Lawrenceville,GA,Georgia,Gwinnett,33.9523,-83.9932,30299,849.6
Galesburg,IL,Illinois,Knox,40.9506,-90.3763,30298,661.1
Zionsville,IN,Indiana,Boone,39.9897,-86.3182,30258,161.0
Highland Park,IL,Illinois,Lake,42.1823,-87.8104,30245,933.4
Austintown,OH,Ohio,Mahoning,41.0932,-80.7405,30179,979.2
Greenville,MS,Mississippi,Washington,33.385,-91.0514,30175,428.6
Liberty,MO,Missouri,Clay,39.2394,-94.4191,30129,425.3
Middletown,NY,New York,Orange,41.4459,-74.4236,30086,2039.0
Sanford,NC,North Carolina,Lee,35.4875,-79.177,30024,388.6
Monterey,CA,California,Monterey,36.5919,-121.8808,30014,1276.2
East Lake-Orient Park,FL,Florida,Hillsborough,27.997,-82.3653,30002,726.4
Southgate,MI,Michigan,Wayne,42.2047,-83.2057,29990,1636.0
Eastern Goleta Valley,CA,California,Santa Barbara,34.4448,-119.7879,29983,693.9
Chamblee,GA,Georgia,DeKalb,33.8842,-84.3007,29894,1499.3
Raytown,MO,Missouri,Jackson,38.9944,-94.4641,29893,1134.5
East Palo Alto,CA,California,San Mateo,37.4671,-122.1352,29888,4497.7
Carney,MD,Maryland,Baltimore,39.405,-76.5235,29873,1632.6
Algonquin,IL,Illinois,McHenry,42.1629,-88.3159,29869,982.2
Bella Vista,AR,Arkansas,Benton,36.4667,-94.2707,29818,245.6
Gloucester,MA,Massachusetts,Essex,42.626,-70.6897,29814,446.4
Crofton,MD,Maryland,Anne Arundel,39.0144,-76.68,29812,1721.7
Atascadero,CA,California,San Luis Obispo,35.4827,-120.6858,29771,450.9
Central,LA,Louisiana,East Baton Rouge,30.5593,-91.0369,29746,181.3
Oak Park,MI,Michigan,Oakland,42.4649,-83.1824,29677,2209.0
New Smyrna Beach,FL,Florida,Volusia,29.0249,-80.9652,29674,278.0
Winter Park,FL,Florida,Orange,28.5989,-81.3442,29672,1355.4
Eagle,ID,Idaho,Ada,43.7223,-116.3866,29665,350.3
Banning,CA,California,Riverside,33.946,-116.8992,29664,503.1
Garfield Heights,OH,Ohio,Cuyahoga,41.4199,-81.6038,29585,1477.9
Rahway,NJ,New Jersey,Union,40.6077,-74.2807,29582,2942.3
Melrose,MA,Massachusetts,Middlesex,42.4556,-71.059,29567,2312.7
Danville,IL,Illinois,Vermilion,40.1426,-87.6111,29534,669.7
Burton,MI,Michigan,Genesee,42.9974,-83.6175,29532,472.7
Hobart,IN,Indiana,Lake,41.514,-87.2729,29516,414.5
Fleming Island,FL,Florida,Clay,30.0988,-81.7124,29505,745.5
Fountain,CO,Colorado,El Paso,38.6886,-104.6829,29495,523.6
Texarkana,AR,Arkansas,Miller,33.436,-93.9959,29492,274.7
Laurel,MD,Maryland,Prince George's,39.0949,-76.8622,29438,2063.7
Suisun City,CA,California,Solano,38.2473,-122.0091,29436,2839.7
Fridley,MN,Minnesota,Anoka,45.0841,-93.2595,29422,1055.7
Matthews,NC,North Carolina,Mecklenburg,35.1195,-80.7101,29417,737.3
Lakewood Ranch,FL,Florida,Manatee,27.4185,-82.3948,29408,222.1
Jacksonville,AR,Arkansas,Pulaski,34.8807,-92.1304,29385,383.3
Schererville,IN,Indiana,Lake,41.4861,-87.4442,29381,729.6
Northampton,MA,Massachusetts,Hampshire,42.3266,-72.6745,29379,321.9
Erie,CO,Colorado,Weld,40.0404,-105.0399,29367,510.9
Fitchburg,WI,Wisconsin,Dane,42.9859,-89.4255,29361,332.1
Hazleton,PA,Pennsylvania,Luzerne,40.9505,-75.9725,29339,1603.6
Paragould,AR,Arkansas,Greene,36.0555,-90.5149,29327,349.3
Burbank,IL,Illinois,Cook,41.7444,-87.7686,29312,2634.1
Seguin,TX,Texas,Guadalupe,29.5891,-97.9676,29293,293.0
Bethany,OR,Oregon,Washington,45.5614,-122.837,29277,1989.9
Golden Gate,FL,Florida,Collier,26.1844,-81.7031,29271,3003.7
Kirkwood,MO,Missouri,St. Louis,38.5788,-90.4203,29233,1168.7
Shaker Heights,OH,Ohio,Cuyahoga,41.4744,-81.5496,29197,1666.1
Perry Hall,MD,Maryland,Baltimore,39.4068,-76.478,29165,1546.0
Englewood,NJ,New Jersey,Bergen,40.8917,-73.9736,29129,2225.5
Laplace,LA,Louisiana,St. John the Baptist,30.0731,-90.4758,29129,540.1
Magna,UT,Utah,Salt Lake,40.7634,-112.1599,29128,690.8
East Niles,CA,California,Kern,35.3683,-118.9225,29110,2114.3
Russellville,AR,Arkansas,Pope,35.2762,-93.1383,29057,398.7
Lake in the Hills,IL,Illinois,McHenry,42.1913,-88.3477,29024,1082.9
Lansing,IL,Illinois,Cook,41.5648,-87.5462,28916,1428.8
Summerlin South,NV,Nevada,Clark,36.1242,-115.3324,28861,1144.8
New Iberia,LA,Louisiana,Iberia,30.0049,-91.8202,28844,1003.8
Prosper,TX,Texas,Collin,33.2394,-96.8087,28825,396.7
Morrisville,NC,North Carolina,Wake,35.8368,-78.8348,28824,1206.2
Jamestown,NY,New York,Chautauqua,42.0976,-79.2367,28818,1270.7
Oakleaf Plantation,FL,Florida,Clay,30.1689,-81.8337,28808,661.8
Jeffersontown,KY,Kentucky,Jefferson,38.2049,-85.5701,28800,1020.0
Casselberry,FL,Florida,Seminole,28.6624,-81.3217,28750,1579.2
Madison Heights,MI,Michigan,Oakland,42.5073,-83.1034,28719,1634.6
Mehlville,MO,Missouri,St. Louis,38.5018,-90.3149,28672,1489.4
Walnut,CA,California,Los Angeles,34.0334,-117.8593,28641,1278.4
Harrison,NY,New York,Westchester,41.0236,-73.7193,28635,653.2
Monroeville,PA,Pennsylvania,Allegheny,40.4262,-79.7605,28607,539.8
McDonough,GA,Georgia,Henry,33.4397,-84.1505,28574,768.2
Stockbridge,GA,Georgia,Henry,33.5254,-84.2295,28567,829.9
Drexel Hill,PA,Pennsylvania,Delaware,39.9495,-75.3038,28538,3371.5
Glen Ellyn,IL,Illinois,DuPage,41.8666,-88.0629,28506,1563.6
Aberdeen,SD,South Dakota,Brown,45.4649,-98.4686,28500,661.9
Frankfort,KY,Kentucky,Franklin,38.1924,-84.8643,28479,724.2
Allen Park,MI,Michigan,Wayne,42.2595,-83.2107,28431,1495.3
Brownsburg,IN,Indiana,Hendricks,39.8337,-86.383,28420,630.4
Orchards,WA,Washington,Clark,45.689,-122.5306,28371,1896.2
Eagle Pass,TX,Texas,Maverick,28.7125,-100.484,28367,1201.1
Forest Hills,MI,Michigan,Kent,42.9577,-85.4895,28327,224.7
Bergenfield,NJ,New Jersey,Bergen,40.9236,-73.9982,28282,3639.5
Independence,KY,Kentucky,Kenton,38.951,-84.5492,28256,618.1
Enterprise,AL,Alabama,Coffee,31.3275,-85.8463,28242,351.3
Henderson,KY,Kentucky,Henderson,37.8397,-87.5798,28201,682.2
Glen Cove,NY,New York,Nassau,40.8709,-73.6287,28187,1575.7
Maryland Heights,MO,Missouri,St. Louis,38.7189,-90.4749,28141,476.4
Greenville,TX,Texas,Hunt,33.1116,-96.1099,28128,335.9
Ewa Gentry,HI,Hawaii,Honolulu,21.3344,-158.0262,28125,4780.3
Belmont,CA,California,San Mateo,37.5154,-122.2953,28109,2248.7
Bixby,OK,Oklahoma,Tulsa,35.9454,-95.8776,28091,423.2
Lathrop,CA,California,San Joaquin,37.809,-121.3131,28078,464.7
Shirley,NY,New York,Suffolk,40.7936,-72.8748,28059,977.4
Garden City,KS,Kansas,Finney,37.9753,-100.8527,28022,934.4
Oakdale,MN,Minnesota,Washington,44.9876,-92.9641,28019,983.7
South Laurel,MD,Maryland,Prince George's,39.0603,-76.8456,27998,1320.1
Ridgecrest,CA,California,Kern,35.6308,-117.6622,27989,535.0
Mililani Town,HI,Hawaii,Honolulu,21.4465,-158.0147,27974,2644.3
Millville,NJ,New Jersey,Cumberland,39.3903,-75.0561,27946,252.7
Kahului,HI,Hawaii,Maui,20.8715,-156.4603,27938,805.0
Reisterstown,MD,Maryland,Baltimore,39.455,-76.814,27917,2108.3
Kent,OH,Ohio,Portage,41.149,-81.361,27912,1243.3
Williamsport,PA,Pennsylvania,Lycoming,41.2399,-77.037,27908,1250.9
Dodge City,KS,Kansas,Ford,37.7611,-100.0182,27899,713.3
Wilmette,IL,Illinois,Cook,42.0771,-87.7282,27895,1937.7
Easton,PA,Pennsylvania,Northampton,40.6858,-75.2209,27860,2470.0
Chicago Heights,IL,Illinois,Cook,41.51,-87.6345,27840,1111.4
Clinton,MS,Mississippi,Hinds,32.354,-90.3403,27830,228.7
Tualatin,OR,Oregon,Washington,45.3772,-122.7748,27821,1271.2
Statesville,NC,North Carolina,Iredell,35.7842,-80.8713,27777,417.2
Marion,IN,Indiana,Grant,40.5497,-85.6604,27757,682.8
